stop_id,stop_code,stop_name,stop_desc,stop_lat,stop_lon,zone_id,stop_url,location_type,parent_station,stop_timezone,wheelchair_boarding
70,,"Búcsúszentlászló",,46.7930555555555555555555555555555555556,16.9327777777777777777777777777777777778,,,0,,,2
140,,"Angyalföld",,47.5497222222222222222222222222222222222,19.09,,,0,,,2
184,,"Felsőjánosfa",,46.8413888888888888888888888888888888889,16.5441666666666666666666666666666666667,,,0,,,2
185,,"Pankasz",,46.8358333333333333333333333333333333333,16.4961111111111111111111111111111111111,,,0,,,2
186,,"Nagyrákos",,46.8272222222222222222222222222222222222,16.4555555555555555555555555555555555556,,,0,,,2
187,,"Őriszentpéter",,46.8288888888888888888888888888888888889,16.4152777777777777777777777777777777778,,,0,,,2
189,,"Törökbálint",,47.45,18.9086111111111111111111111111111111111,,,0,,,2
190,,"Bicske alsó",,47.4863888888888888888888888888888888889,18.6427777777777777777777777777777777778,,,0,,,2
191,,"Bajánsenye",,46.8180555555555555555555555555555555556,16.3580555555555555555555555555555555556,,,0,,,2
192,,"Aquincum",,47.5661111111111111111111111111111111111,19.0480555555555555555555555555555555556,,,0,,,2
193,,"Piliscsév",,47.6738888888888888888888888888888888889,18.7913888888888888888888888888888888889,,,0,,,2
194,,"Tát",,47.7475,18.6327777777777777777777777777777777778,,,0,,,2
195,,"Süttő felső",,47.7566666666666666666666666666666666667,18.4372222222222222222222222222222222222,,,0,,,2
199,,"Budatétény",,47.405,19.0163888888888888888888888888888888889,,,0,,,2
200,,"Seregélyes-Szőlőhegy",,47.1194444444444444444444444444444444445,18.6122222222222222222222222222222222222,,,0,,,2
201,,"Gödöllő-Állami telepek",,47.5644444444444444444444444444444444444,19.3755555555555555555555555555555555556,,,0,,,2
203,,"Dunakeszi alsó",,47.6077777777777777777777777777777777778,19.1288888888888888888888888888888888889,,,0,,,2
204,,"Vác-Alsóváros",,47.7730555555555555555555555555555555556,19.1497222222222222222222222222222222222,,,0,,,2
206,,"Szob alsó",,47.8166666666666666666666666666666666667,18.8725,,,0,,,2
207,,"Zalaszentmihály-Pacsa",,46.7225,16.9519444444444444444444444444444444444,,,0,,,2
208,,"Pötréte",,46.6827777777777777777777777777777777778,16.9575,,,0,,,2
209,,"Felsőrajk",,46.6672222222222222222222222222222222222,16.9827777777777777777777777777777777778,,,0,,,2
211,,"Gelse",,46.6005555555555555555555555555555555556,16.9827777777777777777777777777777777778,,,0,,,2
219,,"Őrtilos",,46.2977777777777777777777777777777777778,16.8877777777777777777777777777777777778,,,0,,,2
220,,"Zákány",,46.2519444444444444444444444444444444444,16.9425,,,0,,,2
221,,"Berzence",,46.2013888888888888888888888888888888889,17.1436111111111111111111111111111111111,,,0,,,2
222,,"Somogyudvarhely",,46.1633333333333333333333333333333333333,17.1797222222222222222222222222222222222,,,0,,,2
223,,"Bélavár",,46.1227777777777777777777777777777777778,17.2077777777777777777777777777777777778,,,0,,,2
224,,"Vízvár",,46.1013888888888888888888888888888888889,17.2394444444444444444444444444444444444,,,0,,,2
225,,"Babócsa",,46.0375,17.3358333333333333333333333333333333333,,,0,,,2
226,,"Péterhida-Komlósd",,46.0066666666666666666666666666666666667,17.3580555555555555555555555555555555556,,,0,,,2
228,,"Barcs",,45.9519444444444444444444444444444444444,17.4469444444444444444444444444444444444,,,0,,,2
229,,"Barcs felső",,45.9583333333333333333333333333333333333,17.4863888888888888888888888888888888889,,,0,,,2
230,,"Középrigóc",,45.9705555555555555555555555555555555556,17.525,,,0,,,2
231,,"Darány",,45.9922222222222222222222222222222222222,17.5986111111111111111111111111111111111,,,0,,,2
232,,"Kisdobsza",,46.0122222222222222222222222222222222222,17.6680555555555555555555555555555555556,,,0,,,2
233,,"Nemeske",,46.0233333333333333333333333333333333333,17.7052777777777777777777777777777777778,,,0,,,2
234,,"Molvány",,46.0352777777777777777777777777777777778,17.7486111111111111111111111111111111111,,,0,,,2
235,,"Szigetvár",,46.0433333333333333333333333333333333333,17.8019444444444444444444444444444444444,,,0,,,2
237,,"Nagypeterd",,46.0394444444444444444444444444444444444,17.8716666666666666666666666666666666667,,,0,,,2
238,,"Szentdénes",,46.0366666666666666666666666666666666667,17.9269444444444444444444444444444444445,,,0,,,2
239,,"Háros",,47.4122222222222222222222222222222222222,19.035,,,0,,,2
240,,"Nagytétény-Diósd",,47.3983333333333333333333333333333333333,18.9744444444444444444444444444444444445,,,0,,,2
241,,"Érdliget",,47.3902777777777777777777777777777777778,18.9377777777777777777777777777777777778,,,0,,,2
242,,"Érd felső",,47.3811111111111111111111111111111111111,18.9222222222222222222222222222222222222,,,0,,,2
243,,"Érd",,47.3697222222222222222222222222222222222,18.9008333333333333333333333333333333333,,,0,,,2
244,,"Százhalombatta",,47.3222222222222222222222222222222222222,18.8991666666666666666666666666666666667,,,0,,,2
245,,"Dunai Finomító",,47.2944444444444444444444444444444444444,18.8788888888888888888888888888888888889,,,0,,,2
246,,"Ercsi",,47.2472222222222222222222222222222222222,18.8752777777777777777777777777777777778,,,0,,,2
247,,"Iváncsa",,47.1777777777777777777777777777777777778,18.8119444444444444444444444444444444444,,,0,,,2
248,,"Pusztaszabolcs",,47.1397222222222222222222222222222222222,18.7616666666666666666666666666666666667,,,0,,,2
249,,"Szabadegyháza",,47.0827777777777777777777777777777777778,18.7041666666666666666666666666666666667,,,0,,,2
250,,"Sárosd",,47.0397222222222222222222222222222222222,18.6602777777777777777777777777777777778,,,0,,,2
251,,"Nagylók",,46.9794444444444444444444444444444444445,18.6358333333333333333333333333333333333,,,0,,,2
252,,"Sárbogárd",,46.8969444444444444444444444444444444444,18.6119444444444444444444444444444444444,,,0,,,2
253,,"Rétszilas",,46.8141666666666666666666666666666666667,18.6013888888888888888888888888888888889,,,0,,,2
260,,"Nagyatád",,46.2286111111111111111111111111111111111,17.3541666666666666666666666666666666667,,,0,,,2
267,,"Budapest-Keleti",,47.5002777777777777777777777777777777778,19.0841666666666666666666666666666666667,,,0,,,1
268,,"Ferencváros",,47.4686111111111111111111111111111111111,19.0880555555555555555555555555555555556,,,0,,,2
269,,"Budapest-Nyugati",,47.5108333333333333333333333333333333333,19.0575,,,0,,,1
272,,"Kőbánya felső",,47.4919444444444444444444444444444444444,19.1338888888888888888888888888888888889,,,0,,,2
273,,"Rákos",,47.4888888888888888888888888888888888889,19.1747222222222222222222222222222222222,,,0,,,2
274,,"Rákosrendező",,47.5255555555555555555555555555555555556,19.0894444444444444444444444444444444444,,,0,,,2
275,,"Zugló",,47.5113888888888888888888888888888888889,19.1013888888888888888888888888888888889,,,0,,,2
277,,"Mezőtárkány",,47.725,20.4802777777777777777777777777777777778,,,0,,,2
278,,"Istvántelek",,47.5502777777777777777777777777777777778,19.1063888888888888888888888888888888889,,,0,,,2
279,,"Rákospalota-Újpest",,47.5658333333333333333333333333333333333,19.1119444444444444444444444444444444444,,,0,,,2
280,,"Kőbánya alsó",,47.4830555555555555555555555555555555556,19.1272222222222222222222222222222222222,,,0,,,2
281,,"Kőbánya-Kispest",,47.4638888888888888888888888888888888889,19.1494444444444444444444444444444444444,,,0,,,2
282,,"Pestszentlőrinc",,47.4547222222222222222222222222222222222,19.1827777777777777777777777777777777778,,,0,,,2
283,,"Kispest",,47.4511111111111111111111111111111111111,19.1605555555555555555555555555555555556,,,0,,,2
284,,"Újpest",,47.5588888888888888888888888888888888889,19.0797222222222222222222222222222222222,,,0,,,2
288,,"Pestszentimre felső",,47.4136111111111111111111111111111111111,19.1733333333333333333333333333333333333,,,0,,,2
289,,"Dunakeszi",,47.6261111111111111111111111111111111111,19.1361111111111111111111111111111111111,,,0,,,2
290,,"Dunakeszi-Gyártelep",,47.6436111111111111111111111111111111111,19.135,,,0,,,2
291,,"Alsógöd",,47.6769444444444444444444444444444444445,19.1344444444444444444444444444444444444,,,0,,,2
292,,"Göd",,47.6877777777777777777777777777777777778,19.1375,,,0,,,2
293,,"Felsőgöd",,47.7055555555555555555555555555555555556,19.1433333333333333333333333333333333333,,,0,,,2
294,,"Sződ-Sződliget",,47.7280555555555555555555555555555555556,19.1547222222222222222222222222222222222,,,0,,,2
295,,"Vác",,47.7827777777777777777777777777777777778,19.1330555555555555555555555555555555556,,,0,,,2
296,,"Verőce",,47.8238888888888888888888888888888888889,19.0294444444444444444444444444444444445,,,0,,,2
297,,"Kismaros",,47.8275,19.0102777777777777777777777777777777778,,,0,,,2
298,,"Nagymaros-Visegrád",,47.7913888888888888888888888888888888889,18.9591666666666666666666666666666666667,,,0,,,2
299,,"Nagymaros",,47.7802777777777777777777777777777777778,18.9522222222222222222222222222222222222,,,0,,,2
300,,"Zebegény",,47.8013888888888888888888888888888888889,18.9088888888888888888888888888888888889,,,0,,,2
301,,"Szob",,47.8211111111111111111111111111111111111,18.8619444444444444444444444444444444444,,,0,,,2
302,,"Alagimajor",,47.6019444444444444444444444444444444444,19.1538888888888888888888888888888888889,,,0,,,2
303,,"Fót",,47.6113888888888888888888888888888888889,19.1816666666666666666666666666666666667,,,0,,,2
304,,"Fótújfalu",,47.615,19.1927777777777777777777777777777777778,,,0,,,2
305,,"Csomád",,47.6355555555555555555555555555555555556,19.2227777777777777777777777777777777778,,,0,,,2
306,,"Veresegyház",,47.6491666666666666666666666666666666667,19.2886111111111111111111111111111111111,,,0,,,2
307,,"Erdőkertes",,47.6622222222222222222222222222222222222,19.2958333333333333333333333333333333333,,,0,,,2
308,,"Őrbottyán",,47.6858333333333333333333333333333333333,19.2836111111111111111111111111111111111,,,0,,,2
309,,"Váchartyán",,47.7258333333333333333333333333333333333,19.2488888888888888888888888888888888889,,,0,,,2
310,,"Magyarkút-Verőce",,47.8261111111111111111111111111111111111,19.0444444444444444444444444444444444444,,,0,,,2
311,,"Szokolya",,47.8711111111111111111111111111111111111,19.0305555555555555555555555555555555556,,,0,,,2
312,,"Berkenye",,47.8852777777777777777777777777777777778,19.0719444444444444444444444444444444445,,,0,,,2
313,,"Nógrád",,47.9019444444444444444444444444444444444,19.0475,,,0,,,2
314,,"Diósjenő",,47.94,19.0494444444444444444444444444444444444,,,0,,,2
315,,"Borsosberény",,47.9713888888888888888888888888888888889,19.0930555555555555555555555555555555556,,,0,,,2
316,,"Nagyoroszi",,47.9936111111111111111111111111111111111,19.1011111111111111111111111111111111111,,,0,,,2
317,,"Drégelyvár",,48.0019444444444444444444444444444444444,19.0794444444444444444444444444444444445,,,0,,,2
318,,"Drégely",,48.0422222222222222222222222222222222222,19.0561111111111111111111111111111111111,,,0,,,2
319,,"Drégelypalánk",,48.055,19.0461111111111111111111111111111111111,,,0,,,2
320,,"Ipolyvece",,48.0569444444444444444444444444444444444,19.1063888888888888888888888888888888889,,,0,,,2
321,,"Dejtár",,48.0455555555555555555555555555555555556,19.1963888888888888888888888888888888889,,,0,,,2
322,,"Ipolyszög",,48.0544444444444444444444444444444444444,19.2219444444444444444444444444444444445,,,0,,,2
327,,"Iklad-Domony",,47.6580555555555555555555555555555555556,19.4444444444444444444444444444444444444,,,0,,,2
328,,"Iklad-Domony felső",,47.6677777777777777777777777777777777778,19.4280555555555555555555555555555555556,,,0,,,2
329,,"Galgamácsa",,47.6938888888888888888888888888888888889,19.3925,,,0,,,2
330,,"Vácrátót",,47.7327777777777777777777777777777777778,19.2177777777777777777777777777777777778,,,0,,,2
331,,"Csörög",,47.7358333333333333333333333333333333333,19.1963888888888888888888888888888888889,,,0,,,2
332,,"Galgagyörk",,47.7352777777777777777777777777777777778,19.3722222222222222222222222222222222222,,,0,,,2
333,,"Püspökhatvan",,47.7686111111111111111111111111111111111,19.3669444444444444444444444444444444445,,,0,,,2
334,,"Acsa-Erdőkürt",,47.8011111111111111111111111111111111111,19.3861111111111111111111111111111111111,,,0,,,2
335,,"Galgaguta",,47.8486111111111111111111111111111111111,19.3855555555555555555555555555555555556,,,0,,,2
336,,"Nógrádkövesd",,47.8794444444444444444444444444444444445,19.3711111111111111111111111111111111111,,,0,,,2
337,,"Magyarnándor",,47.9708333333333333333333333333333333333,19.3566666666666666666666666666666666667,,,0,,,2
338,,"Mohora",,47.9955555555555555555555555555555555556,19.3477777777777777777777777777777777778,,,0,,,2
339,,"Szügy",,48.0363888888888888888888888888888888889,19.3330555555555555555555555555555555556,,,0,,,2
340,,"Balassagyarmat",,48.0711111111111111111111111111111111111,19.2936111111111111111111111111111111111,,,0,,,2
341,,"Őrhalom",,48.0786111111111111111111111111111111111,19.4038888888888888888888888888888888889,,,0,,,2
342,,"Hugyag",,48.0830555555555555555555555555555555556,19.4211111111111111111111111111111111111,,,0,,,2
343,,"Szécsény",,48.0930555555555555555555555555555555556,19.5211111111111111111111111111111111111,,,0,,,2
344,,"Ludányhalászi",,48.1325,19.5294444444444444444444444444444444445,,,0,,,2
345,,"Nógrádszakál",,48.1783333333333333333333333333333333333,19.5216666666666666666666666666666666667,,,0,,,2
346,,"Ráróspuszta",,48.2072222222222222222222222222222222222,19.5413888888888888888888888888888888889,,,0,,,2
347,,"Litke",,48.2158333333333333333333333333333333333,19.5986111111111111111111111111111111111,,,0,,,2
420,,"Nyíregyháza külső",,47.9430555555555555555555555555555555556,21.7402777777777777777777777777777777778,,,0,,,2
421,,"Oros",,47.9458333333333333333333333333333333333,21.8063888888888888888888888888888888889,,,0,,,2
422,,"Napkor",,47.9488888888888888888888888888888888889,21.8730555555555555555555555555555555556,,,0,,,2
423,,"Apagy",,47.9544444444444444444444444444444444444,21.9405555555555555555555555555555555556,,,0,,,2
424,,"Levelek-Magy",,47.9480555555555555555555555555555555556,21.9936111111111111111111111111111111111,,,0,,,2
425,,"Ófehértó",,47.9405555555555555555555555555555555556,22.0413888888888888888888888888888888889,,,0,,,2
426,,"Ligettanya",,47.9516666666666666666666666666666666667,22.0713888888888888888888888888888888889,,,0,,,2
427,,"Baktalórántháza",,47.9886111111111111111111111111111111111,22.0833333333333333333333333333333333333,,,0,,,2
428,,"Vaja-Rohod",,48.0063888888888888888888888888888888889,22.1641666666666666666666666666666666667,,,0,,,2
429,,"Rákóczitanya",,48.0222222222222222222222222222222222222,22.1783333333333333333333333333333333333,,,0,,,2
430,,"Nyírmada",,48.0591666666666666666666666666666666667,22.2030555555555555555555555555555555556,,,0,,,2
431,,"Tunyogmatolcs",,47.9661111111111111111111111111111111111,22.4647222222222222222222222222222222222,,,0,,,2
432,,"Tunyogmatolcs alsó",,47.97,22.4725,,,0,,,2
433,,"Fehérgyarmat",,47.9791666666666666666666666666666666667,22.5244444444444444444444444444444444445,,,0,,,2
434,,"Penyige",,47.9952777777777777777777777777777777778,22.5669444444444444444444444444444444445,,,0,,,2
435,,"Nagyszekeres",,47.9761111111111111111111111111111111111,22.6125,,,0,,,2
436,,"Kisszekeres",,47.9658333333333333333333333333333333333,22.6294444444444444444444444444444444445,,,0,,,2
437,,"Jánkmajtis",,47.9419444444444444444444444444444444444,22.6572222222222222222222222222222222222,,,0,,,2
438,,"Gacsály",,47.9261111111111111111111111111111111111,22.745,,,0,,,2
439,,"Zajta",,47.9025,22.7961111111111111111111111111111111111,,,0,,,2
440,,"Eperjeske alsó",,48.3605555555555555555555555555555555556,22.19,,,0,,,2
441,,"Mándok",,48.3269444444444444444444444444444444445,22.1963888888888888888888888888888888889,,,0,,,2
442,,"Tornyospálca",,48.2683333333333333333333333333333333333,22.2019444444444444444444444444444444444,,,0,,,2
443,,"Aranyosapáti",,48.2111111111111111111111111111111111111,22.2541666666666666666666666666666666667,,,0,,,2
444,,"Gyüre",,48.1713888888888888888888888888888888889,22.2691666666666666666666666666666666667,,,0,,,2
445,,"Kisvarsány",,48.1402777777777777777777777777777777778,22.3005555555555555555555555555555555556,,,0,,,2
446,,"Vásárosnamény",,48.1266666666666666666666666666666666667,22.3061111111111111111111111111111111111,,,0,,,2
447,,"Vitka",,48.0955555555555555555555555555555555556,22.3080555555555555555555555555555555556,,,0,,,2
448,,"Nagydobos",,48.0541666666666666666666666666666666667,22.3111111111111111111111111111111111111,,,0,,,2
449,,"Ópályi",,47.9977777777777777777777777777777777778,22.3183333333333333333333333333333333333,,,0,,,2
450,,"Nyírcsaholy",,47.9080555555555555555555555555555555556,22.3483333333333333333333333333333333333,,,0,,,2
451,,"Nagyecsed",,47.8647222222222222222222222222222222222,22.3855555555555555555555555555555555556,,,0,,,2
452,,"Tiborszállás",,47.8152777777777777777777777777777777778,22.4027777777777777777777777777777777778,,,0,,,2
471,,"Kiskunhalas",,46.4344444444444444444444444444444444444,19.4936111111111111111111111111111111111,,,0,,,2
490,,"Kecskemét alsó",,46.8958333333333333333333333333333333333,19.6922222222222222222222222222222222222,,,0,,,2
700,,"Putnok",,48.2866666666666666666666666666666666667,20.4375,,,0,,,2
701,,"Bánréve",,48.2997222222222222222222222222222222222,20.3519444444444444444444444444444444444,,,0,,,2
772,,"Ipolytarnóc",,48.2366666666666666666666666666666666667,19.6291666666666666666666666666666666667,,,0,,,2
773,,"Rákosliget",,47.4861111111111111111111111111111111111,19.2577777777777777777777777777777777778,,,0,,,2
787,,"Ikrény",,47.6577777777777777777777777777777777778,17.5241666666666666666666666666666666667,,,0,,,2
788,,"Rábapatona",,47.6488888888888888888888888888888888889,17.4619444444444444444444444444444444444,,,0,,,2
789,,"Enese",,47.6441666666666666666666666666666666667,17.4252777777777777777777777777777777778,,,0,,,2
790,,"Kóny",,47.6322222222222222222222222222222222222,17.3572222222222222222222222222222222222,,,0,,,2
793,,"Farád",,47.5952777777777777777777777777777777778,17.1958333333333333333333333333333333333,,,0,,,2
794,,"Rábatamási",,47.5927777777777777777777777777777777778,17.1613888888888888888888888888888888889,,,0,,,2
795,,"Szárföld",,47.5891666666666666666666666666666666667,17.1238888888888888888888888888888888889,,,0,,,2
796,,"Veszkény",,47.5869444444444444444444444444444444444,17.1013888888888888888888888888888888889,,,0,,,2
797,,"Kapuvár",,47.5819444444444444444444444444444444445,17.0469444444444444444444444444444444444,,,0,,,2
798,,"Vitnyéd-Csermajor",,47.5825,16.9872222222222222222222222222222222222,,,0,,,2
799,,"Petőháza",,47.5952777777777777777777777777777777778,16.8930555555555555555555555555555555556,,,0,,,2
800,,"Fertőszentmiklós",,47.6,16.8588888888888888888888888888888888889,,,0,,,2
801,,"Pinnye",,47.6002777777777777777777777777777777778,16.7686111111111111111111111111111111111,,,0,,,2
802,,"Fertőboz",,47.625,16.6916666666666666666666666666666666667,,,0,,,2
804,,"Sopron",,47.6777777777777777777777777777777777778,16.5872222222222222222222222222222222222,,,0,,,1
806,,"Fertőszéplak-Fertőd",,47.6188888888888888888888888888888888889,16.8508333333333333333333333333333333333,,,0,,,2
809,,"Nyúl",,47.5877777777777777777777777777777777778,17.6980555555555555555555555555555555556,,,0,,,2
811,,"Pannonhalma",,47.5477777777777777777777777777777777778,17.7408333333333333333333333333333333333,,,0,,,2
812,,"Tarjánpuszta",,47.5047222222222222222222222222222222222,17.7891666666666666666666666666666666667,,,0,,,2
813,,"Győrasszonyfa",,47.4925,17.7991666666666666666666666666666666667,,,0,,,2
814,,"Veszprémvarsány",,47.4433333333333333333333333333333333333,17.8183333333333333333333333333333333333,,,0,,,2
815,,"Bakonyszentlászló",,47.3955555555555555555555555555555555556,17.8175,,,0,,,2
816,,"Porva-Csesznek",,47.3269444444444444444444444444444444445,17.8411111111111111111111111111111111111,,,0,,,2
817,,"Zirc",,47.2666666666666666666666666666666666667,17.8780555555555555555555555555555555556,,,0,,,2
818,,"Eplény",,47.1927777777777777777777777777777777778,17.9216666666666666666666666666666666667,,,0,,,2
819,,"Marcaltő",,47.4275,17.3488888888888888888888888888888888889,,,0,,,2
820,,"Szany-Rábaszentandrás",,47.4608333333333333333333333333333333333,17.3152777777777777777777777777777777778,,,0,,,2
821,,"Egyed-Rábacsanak",,47.5219444444444444444444444444444444445,17.3163888888888888888888888888888888889,,,0,,,2
822,,"Rábapordány",,47.5572222222222222222222222222222222222,17.315,,,0,,,2
823,,"Albertfalva",,47.4394444444444444444444444444444444444,19.035,,,0,,,2
824,,"Budafok",,47.4258333333333333333333333333333333333,19.0413888888888888888888888888888888889,,,0,,,2
826,,"Tétényliget",,47.3847222222222222222222222222222222222,18.9552777777777777777777777777777777778,,,0,,,2
827,,"Érd alsó",,47.3797222222222222222222222222222222222,18.9230555555555555555555555555555555556,,,0,,,2
828,,"Tárnok",,47.3655555555555555555555555555555555556,18.8738888888888888888888888888888888889,,,0,,,2
829,,"Martonvásár",,47.3213888888888888888888888888888888889,18.7816666666666666666666666666666666667,,,0,,,2
830,,"Baracska",,47.2972222222222222222222222222222222222,18.7533333333333333333333333333333333333,,,0,,,2
831,,"Pettend",,47.26,18.7088888888888888888888888888888888889,,,0,,,2
832,,"Kápolnásnyék",,47.2455555555555555555555555555555555556,18.6922222222222222222222222222222222222,,,0,,,2
833,,"Velence",,47.2269444444444444444444444444444444445,18.6638888888888888888888888888888888889,,,0,,,2
834,,"Velencefürdő",,47.2186111111111111111111111111111111111,18.6480555555555555555555555555555555556,,,0,,,2
835,,"Gárdony",,47.2058333333333333333333333333333333333,18.6247222222222222222222222222222222222,,,0,,,2
836,,"Agárd",,47.1980555555555555555555555555555555556,18.6058333333333333333333333333333333333,,,0,,,2
837,,"Dinnyés",,47.1797222222222222222222222222222222222,18.5608333333333333333333333333333333333,,,0,,,2
838,,"Székesfehérvár",,47.1836111111111111111111111111111111111,18.4247222222222222222222222222222222222,,,0,,,1
839,,"Szabadbattyán",,47.1052777777777777777777777777777777778,18.3883333333333333333333333333333333333,,,0,,,2
840,,"Kiscséripuszta",,47.0480555555555555555555555555555555556,18.355,,,0,,,2
841,,"Lepsény",,46.9875,18.2480555555555555555555555555555555556,,,0,,,2
842,,"Balatonaliga",,46.9844444444444444444444444444444444444,18.1713888888888888888888888888888888889,,,0,,,2
843,,"Balatonvilágos",,46.9641666666666666666666666666666666667,18.1572222222222222222222222222222222222,,,0,,,2
844,,"Szabadifürdő",,46.9261111111111111111111111111111111111,18.1033333333333333333333333333333333333,,,0,,,2
846,,"Ózd alsó",,48.2277777777777777777777777777777777778,20.3061111111111111111111111111111111111,,,0,,,2
847,,"Ózd",,48.2225,20.2947222222222222222222222222222222222,,,0,,,2
848,,"Alsóboldva",,48.2127777777777777777777777777777777778,20.7922222222222222222222222222222222222,,,0,,,2
849,,"Boldva",,48.2233333333333333333333333333333333333,20.7902777777777777777777777777777777778,,,0,,,2
850,,"Borsodszirák",,48.2591666666666666666666666666666666667,20.7705555555555555555555555555555555556,,,0,,,2
851,,"Edelény alsó",,48.2791666666666666666666666666666666667,20.7608333333333333333333333333333333333,,,0,,,2
852,,"Edelény",,48.2997222222222222222222222222222222222,20.7494444444444444444444444444444444444,,,0,,,2
853,,"Szendrőlád",,48.3344444444444444444444444444444444444,20.7319444444444444444444444444444444445,,,0,,,2
854,,"Szendrő",,48.4005555555555555555555555555555555556,20.7211111111111111111111111111111111111,,,0,,,2
855,,"Szendrő felső",,48.4097222222222222222222222222222222222,20.72,,,0,,,2
856,,"Szalonna",,48.4494444444444444444444444444444444444,20.7222222222222222222222222222222222222,,,0,,,2
857,,"Perkupa",,48.4713888888888888888888888888888888889,20.6911111111111111111111111111111111111,,,0,,,2
858,,"Szemeretelep",,47.4430555555555555555555555555555555556,19.2141666666666666666666666666666666667,,,0,,,2
859,,"Jósvafő-Aggtelek",,48.4897222222222222222222222222222222222,20.6938888888888888888888888888888888889,,,0,,,2
860,,"Bódvaszilas",,48.5375,20.7380555555555555555555555555555555556,,,0,,,2
861,,"Komjáti",,48.5475,20.7597222222222222222222222222222222222,,,0,,,2
862,,"Tornanádaska",,48.5583333333333333333333333333333333333,20.7872222222222222222222222222222222222,,,0,,,2
867,,"Onga",,48.1211111111111111111111111111111111111,20.9066666666666666666666666666666666667,,,0,,,2
869,,"Szikszó-Vásártér",,48.1930555555555555555555555555555555556,20.9347222222222222222222222222222222222,,,0,,,2
870,,"Szikszó",,48.2016666666666666666666666666666666667,20.9416666666666666666666666666666666667,,,0,,,2
871,,"Aszaló",,48.2202777777777777777777777777777777778,20.9616666666666666666666666666666666667,,,0,,,2
872,,"Halmaj",,48.2466666666666666666666666666666666667,20.9916666666666666666666666666666666667,,,0,,,2
873,,"Csobád",,48.2772222222222222222222222222222222222,21.0338888888888888888888888888888888889,,,0,,,2
874,,"Ináncs",,48.2911111111111111111111111111111111111,21.0577777777777777777777777777777777778,,,0,,,2
875,,"Forró-Encs",,48.3275,21.1177777777777777777777777777777777778,,,0,,,2
876,,"Méra",,48.3630555555555555555555555555555555556,21.1402777777777777777777777777777777778,,,0,,,2
877,,"Novajidrány",,48.4044444444444444444444444444444444444,21.1705555555555555555555555555555555556,,,0,,,2
879,,"Hernádszurdok",,48.4872222222222222222222222222222222222,21.2138888888888888888888888888888888889,,,0,,,2
880,,"Hidasnémeti",,48.5083333333333333333333333333333333333,21.2297222222222222222222222222222222222,,,0,,,2
881,,"Mád",,48.19,21.2688888888888888888888888888888888889,,,0,,,2
882,,"Rátka",,48.215,21.2302777777777777777777777777777777778,,,0,,,2
883,,"Tállya",,48.2269444444444444444444444444444444445,21.2252777777777777777777777777777777778,,,0,,,2
884,,"Golop",,48.2427777777777777777777777777777777778,21.2041666666666666666666666666666666667,,,0,,,2
885,,"Abaújszántó",,48.2869444444444444444444444444444444444,21.1816666666666666666666666666666666667,,,0,,,2
886,,"Abaújszántói fürdő",,48.2683333333333333333333333333333333333,21.1797222222222222222222222222222222222,,,0,,,2
887,,"Abaújkér",,48.3094444444444444444444444444444444444,21.1983333333333333333333333333333333333,,,0,,,2
888,,"Boldogkőváralja",,48.345,21.2088888888888888888888888888888888889,,,0,,,2
889,,"Korlát-Vizsoly",,48.365,21.2191666666666666666666666666666666667,,,0,,,2
890,,"Fony",,48.4113888888888888888888888888888888889,21.2427777777777777777777777777777777778,,,0,,,2
891,,"Hejce-Vilmány",,48.4194444444444444444444444444444444445,21.2455555555555555555555555555555555556,,,0,,,2
892,,"Göncruszka",,48.445,21.2469444444444444444444444444444444444,,,0,,,2
893,,"Gönc",,48.4705555555555555555555555555555555556,21.2613888888888888888888888888888888889,,,0,,,2
894,,"Zsujta",,48.4925,21.265,,,0,,,2
895,,"Bodrogkeresztúr",,48.1755555555555555555555555555555555556,21.3541666666666666666666666666666666667,,,0,,,2
896,,"Szegi",,48.2019444444444444444444444444444444444,21.3877777777777777777777777777777777778,,,0,,,2
897,,"Erdőbénye",,48.2180555555555555555555555555555555556,21.4019444444444444444444444444444444444,,,0,,,2
898,,"Olaszliszka-Tolcsva",,48.2583333333333333333333333333333333333,21.4480555555555555555555555555555555556,,,0,,,2
899,,"Bodrogolaszi",,48.2869444444444444444444444444444444444,21.5127777777777777777777777777777777778,,,0,,,2
900,,"Sárospatak",,48.3258333333333333333333333333333333333,21.5661111111111111111111111111111111111,,,0,,,2
901,,"Sátoraljaújhely",,48.3858333333333333333333333333333333333,21.6577777777777777777777777777777777778,,,0,,,2
902,,"Vecsés",,47.4083333333333333333333333333333333333,19.2563888888888888888888888888888888889,,,0,,,2
903,,"Vecsés-Kertekalja",,47.4033333333333333333333333333333333333,19.2713888888888888888888888888888888889,,,0,,,2
904,,"Üllő",,47.3908333333333333333333333333333333333,19.3488888888888888888888888888888888889,,,0,,,2
905,,"Monor",,47.3452777777777777777777777777777777778,19.4369444444444444444444444444444444444,,,0,,,2
906,,"Pilis",,47.2797222222222222222222222222222222222,19.5363888888888888888888888888888888889,,,0,,,2
907,,"Albertirsa",,47.2402777777777777777777777777777777778,19.6063888888888888888888888888888888889,,,0,,,2
908,,"Ceglédbercel-Cserő",,47.2102777777777777777777777777777777778,19.6869444444444444444444444444444444444,,,0,,,2
909,,"Cegléd",,47.1827777777777777777777777777777777778,19.8061111111111111111111111111111111111,,,0,,,1
910,,"Abony",,47.1730555555555555555555555555555555556,20.0163888888888888888888888888888888889,,,0,,,2
911,,"Szolnok",,47.1791666666666666666666666666666666667,20.1758333333333333333333333333333333333,,,0,,,1
912,,"Szajol",,47.1705555555555555555555555555555555556,20.2952777777777777777777777777777777778,,,0,,,2
913,,"Törökszentmiklós",,47.1702777777777777777777777777777777778,20.4136111111111111111111111111111111111,,,0,,,2
917,,"Rákoscsaba-Újtelep",,47.4875,19.2719444444444444444444444444444444445,,,0,,,2
918,,"Rákoscsaba",,47.4922222222222222222222222222222222222,19.2847222222222222222222222222222222222,,,0,,,2
919,,"Pécel",,47.4938888888888888888888888888888888889,19.3388888888888888888888888888888888889,,,0,,,2
920,,"Isaszeg",,47.535,19.3902777777777777777777777777777777778,,,0,,,2
921,,"Gödöllő",,47.5922222222222222222222222222222222222,19.3586111111111111111111111111111111111,,,0,,,2
922,,"Máriabesnyő",,47.5955555555555555555555555555555555556,19.3897222222222222222222222222222222222,,,0,,,2
923,,"Bag",,47.6411111111111111111111111111111111111,19.4716666666666666666666666666666666667,,,0,,,2
924,,"Aszód",,47.6477777777777777777777777777777777778,19.4919444444444444444444444444444444444,,,0,,,2
925,,"Hévízgyörk",,47.6386111111111111111111111111111111111,19.5266666666666666666666666666666666667,,,0,,,2
926,,"Galgahévíz",,47.6325,19.5583333333333333333333333333333333333,,,0,,,2
927,,"Tura",,47.6263888888888888888888888888888888889,19.5975,,,0,,,2
928,,"Hatvan",,47.6636111111111111111111111111111111111,19.6713888888888888888888888888888888889,,,0,,,1
930,,"Vámosgyörk",,47.6861111111111111111111111111111111111,19.9277777777777777777777777777777777778,,,0,,,2
931,,"Adács",,47.6963888888888888888888888888888888889,19.9752777777777777777777777777777777778,,,0,,,2
932,,"Karácsond",,47.7180555555555555555555555555555555556,20.0486111111111111111111111111111111111,,,0,,,2
933,,"Ludas",,47.7238888888888888888888888888888888889,20.0955555555555555555555555555555555556,,,0,,,2
934,,"Nagyút",,47.7266666666666666666666666666666666667,20.1613888888888888888888888888888888889,,,0,,,2
935,,"Kál-Kápolna",,47.7341666666666666666666666666666666667,20.2541666666666666666666666666666666667,,,0,,,2
936,,"Füzesabony",,47.7513888888888888888888888888888888889,20.4152777777777777777777777777777777778,,,0,,,2
937,,"Szihalom",,47.7669444444444444444444444444444444445,20.4919444444444444444444444444444444444,,,0,,,2
938,,"Mezőkövesd",,47.7972222222222222222222222222222222222,20.5675,,,0,,,2
939,,"Mezőkövesd felső",,47.8072222222222222222222222222222222222,20.5913888888888888888888888888888888889,,,0,,,2
940,,"Mezőkeresztes-Mezőnyárád",,47.8455555555555555555555555555555555556,20.6702777777777777777777777777777777778,,,0,,,2
941,,"Csincse",,47.8908333333333333333333333333333333333,20.7641666666666666666666666666666666667,,,0,,,2
942,,"Emőd",,47.9305555555555555555555555555555555556,20.8227777777777777777777777777777777778,,,0,,,2
943,,"Nyékládháza",,47.9925,20.8405555555555555555555555555555555556,,,0,,,2
945,,"Miskolc-Tiszai",,48.0986111111111111111111111111111111111,20.8113888888888888888888888888888888889,,,0,,,1
946,,"Felsőzsolca",,48.0836111111111111111111111111111111111,20.8661111111111111111111111111111111111,,,0,,,2
947,,"Hernádnémeti-Bőcs",,48.0513888888888888888888888888888888889,20.985,,,0,,,2
948,,"Tiszalúc",,48.0397222222222222222222222222222222222,21.0575,,,0,,,2
949,,"Taktaharkány",,48.0916666666666666666666666666666666667,21.1286111111111111111111111111111111111,,,0,,,2
950,,"Taktaszada",,48.1125,21.1494444444444444444444444444444444444,,,0,,,2
951,,"Szerencs",,48.1555555555555555555555555555555555556,21.2144444444444444444444444444444444444,,,0,,,1
952,,"Mezőzombor",,48.1569444444444444444444444444444444444,21.2677777777777777777777777777777777778,,,0,,,2
953,,"Tarcal",,48.125,21.34,,,0,,,2
954,,"Tokaj",,48.1127777777777777777777777777777777778,21.4066666666666666666666666666666666667,,,0,,,2
955,,"Rakamaz",,48.12,21.475,,,0,,,2
956,,"Görögszállás",,48.04,21.555,,,0,,,2
957,,"Nyírtelek",,48.005,21.6155555555555555555555555555555555556,,,0,,,2
958,,"Rákoshegy",,47.4686111111111111111111111111111111111,19.2455555555555555555555555555555555556,,,0,,,2
959,,"Ecser",,47.4394444444444444444444444444444444444,19.3180555555555555555555555555555555556,,,0,,,2
960,,"Maglód",,47.4388888888888888888888888888888888889,19.3408333333333333333333333333333333333,,,0,,,2
961,,"Maglódi nyaraló",,47.4341666666666666666666666666666666667,19.3636111111111111111111111111111111111,,,0,,,2
962,,"Gyömrő",,47.4297222222222222222222222222222222222,19.3933333333333333333333333333333333333,,,0,,,2
963,,"Mende",,47.4269444444444444444444444444444444445,19.4397222222222222222222222222222222222,,,0,,,2
964,,"Szőlősnyaraló",,47.4502777777777777777777777777777777778,19.5611111111111111111111111111111111111,,,0,,,2
965,,"Sülysáp",,47.4519444444444444444444444444444444444,19.5275,,,0,,,2
966,,"Tápiószecső",,47.4430555555555555555555555555555555556,19.6147222222222222222222222222222222222,,,0,,,2
967,,"Szentmártonkáta",,47.4319444444444444444444444444444444445,19.6805555555555555555555555555555555556,,,0,,,2
968,,"Nagykáta",,47.4097222222222222222222222222222222222,19.7377777777777777777777777777777777778,,,0,,,2
969,,"Farmos",,47.3552777777777777777777777777777777778,19.8375,,,0,,,2
970,,"Tápiószele",,47.3463888888888888888888888888888888889,19.8736111111111111111111111111111111111,,,0,,,2
971,,"Tápiógyörgye",,47.325,19.95,,,0,,,2
972,,"Újszász",,47.2858333333333333333333333333333333333,20.0669444444444444444444444444444444445,,,0,,,2
973,,"Szurdokpüspöki",,47.8519444444444444444444444444444444444,19.6902777777777777777777777777777777778,,,0,,,2
975,,"Lőrinci",,47.7394444444444444444444444444444444444,19.6736111111111111111111111111111111111,,,0,,,2
976,,"Selyp",,47.7591666666666666666666666666666666667,19.6708333333333333333333333333333333333,,,0,,,2
977,,"Apc-Zagyvaszántó",,47.7913888888888888888888888888888888889,19.6680555555555555555555555555555555556,,,0,,,2
978,,"Pásztó",,47.9188888888888888888888888888888888889,19.6888888888888888888888888888888888889,,,0,,,2
979,,"Mátraszőlős-Hasznos",,47.9230555555555555555555555555555555556,19.6888888888888888888888888888888888889,,,0,,,2
980,,"Tar",,47.9561111111111111111111111111111111111,19.7463888888888888888888888888888888889,,,0,,,2
981,,"Mátraverebély",,47.9683333333333333333333333333333333333,19.7786111111111111111111111111111111111,,,0,,,2
982,,"Nagybátony",,47.9811111111111111111111111111111111111,19.82,,,0,,,2
983,,"Kisterenye",,48.0094444444444444444444444444444444444,19.8319444444444444444444444444444444445,,,0,,,2
984,,"Kisterenye-Bányatelep",,48.0213888888888888888888888888888888889,19.8319444444444444444444444444444444445,,,0,,,2
985,,"Salgótarján külső",,48.0894444444444444444444444444444444444,19.7908333333333333333333333333333333333,,,0,,,2
988,,"Balatonfenyves GV",,46.7125,17.4791666666666666666666666666666666667,,,0,,,2
989,,"Várhegyalja",,47.7377777777777777777777777777777777778,18.3666666666666666666666666666666666667,,,0,,,2
990,,"Imremajor",,46.6805555555555555555555555555555555556,17.4997222222222222222222222222222222222,,,0,,,2
991,,"Rákospalota-Kertváros",,47.5783333333333333333333333333333333333,19.1227777777777777777777777777777777778,,,0,,,2
995,,"Vicziántelep",,47.6758333333333333333333333333333333333,19.2861111111111111111111111111111111111,,,0,,,2
997,,"Pálmajor",,46.6630555555555555555555555555555555556,17.4575,,,0,,,2
998,,"Somogyszentpál felső",,46.6491666666666666666666666666666666667,17.4722222222222222222222222222222222222,,,0,,,2
999,,"Somogyszentpál",,46.6386111111111111111111111111111111111,17.4786111111111111111111111111111111111,,,0,,,2
1000,,"Rudnaykert",,47.7175,19.2577777777777777777777777777777777778,,,0,,,2
1001,,"Székesfehérvár-Repülőtér",,47.1583333333333333333333333333333333333,18.4066666666666666666666666666666666667,,,0,,,2
1002,,"Bánhida",,47.5808333333333333333333333333333333333,18.3772222222222222222222222222222222222,,,0,,,2
1003,,"Magyarkút",,47.8502777777777777777777777777777777778,19.045,,,0,,,2
1006,,"Becske alsó",,47.8972222222222222222222222222222222222,19.3647222222222222222222222222222222222,,,0,,,2
1007,,"Hosszúberek-Péteri",,47.3705555555555555555555555555555555556,19.3897222222222222222222222222222222222,,,0,,,2
1008,,"Monorierdő",,47.3088888888888888888888888888888888889,19.4991666666666666666666666666666666667,,,0,,,2
1009,,"Ceglédbercel",,47.2158333333333333333333333333333333333,19.6586111111111111111111111111111111111,,,0,,,2
1010,,"Budai út",,47.2083333333333333333333333333333333333,19.7313888888888888888888888888888888889,,,0,,,2
1013,,"Büdöskútpuszta",,48.3730555555555555555555555555555555556,20.7261111111111111111111111111111111111,,,0,,,2
1014,,"Bánrévei Vízmű",,48.2827777777777777777777777777777777778,20.3683333333333333333333333333333333333,,,0,,,2
1015,,"Rákoskert",,47.4563888888888888888888888888888888889,19.2961111111111111111111111111111111111,,,0,,,2
1017,,"Szirmabesenyő",,48.1469444444444444444444444444444444444,20.7830555555555555555555555555555555556,,,0,,,2
1021,,"Kitérőgyár",,47.7669444444444444444444444444444444445,19.9352777777777777777777777777777777778,,,0,,,2
1022,,"Tápiószentmárton",,47.3733333333333333333333333333333333333,19.7977777777777777777777777777777777778,,,0,,,2
1023,,"Zagyvarékas",,47.2441666666666666666666666666666666667,20.0972222222222222222222222222222222222,,,0,,,2
1024,,"Abonyi út",,47.2066666666666666666666666666666666667,20.1247222222222222222222222222222222222,,,0,,,2
1026,,"Jászkisér felső",,47.4380555555555555555555555555555555556,20.2022222222222222222222222222222222222,,,0,,,2
1027,,"Szellőhát",,47.4255555555555555555555555555555555556,20.1888888888888888888888888888888888889,,,0,,,2
1031,,"Szilvásvárad-Szalajkavölgy",,48.0955555555555555555555555555555555556,20.3825,,,0,,,2
1033,,"Vásárosnamény külső",,48.0844444444444444444444444444444444444,22.2555555555555555555555555555555555556,,,0,,,2
1039,,"Újváros",,46.6605555555555555555555555555555555556,20.5361111111111111111111111111111111111,,,0,,,2
1040,,"Városi park",,46.6977777777777777777777777777777777778,19.8647222222222222222222222222222222222,,,0,,,2
1044,,"Belsőkamaráspuszta",,46.3419444444444444444444444444444444444,20.8488888888888888888888888888888888889,,,0,,,2
1045,,"Sajószöged",,47.9452777777777777777777777777777777778,20.9816666666666666666666666666666666667,,,0,,,2
1046,,"Kazincbarcika alsó",,48.2552777777777777777777777777777777778,20.6491666666666666666666666666666666667,,,0,,,2
1047,,"Nyárjas",,46.8577777777777777777777777777777777778,19.9236111111111111111111111111111111111,,,0,,,2
1049,,"Pogonyipuszta",,48.2963888888888888888888888888888888889,20.3816666666666666666666666666666666667,,,0,,,2
1051,,"Sióvölgy",,46.9138888888888888888888888888888888889,18.0711111111111111111111111111111111111,,,0,,,2
1053,,"Répáspuszta",,46.4302777777777777777777777777777777778,17.8472222222222222222222222222222222222,,,0,,,2
1054,,"Virányos",,48.0666666666666666666666666666666666667,21.5272222222222222222222222222222222222,,,0,,,2
1055,,"Füzesbokor",,47.9886111111111111111111111111111111111,21.6475,,,0,,,2
1126,,"Kunfehértó",,46.3558333333333333333333333333333333333,19.4172222222222222222222222222222222222,,,0,,,2
1127,,"Erdőszél",,46.3294444444444444444444444444444444445,19.395,,,0,,,2
1128,,"Jánoshalma",,46.2930555555555555555555555555555555556,19.3302777777777777777777777777777777778,,,0,,,2
1129,,"Mélykút",,46.2130555555555555555555555555555555556,19.3705555555555555555555555555555555556,,,0,,,2
1130,,"Bácsalmás",,46.1180555555555555555555555555555555556,19.3463888888888888888888888888888888889,,,0,,,2
1131,,"Almás",,46.1163888888888888888888888888888888889,19.3286111111111111111111111111111111111,,,0,,,2
1133,,"Bácsbokod-Bácsborsód",,46.1158333333333333333333333333333333333,19.16,,,0,,,2
1136,,"Baja",,46.1891666666666666666666666666666666667,18.9558333333333333333333333333333333333,,,0,,,2
1137,,"Harkakötöny",,46.4583333333333333333333333333333333333,19.6019444444444444444444444444444444444,,,0,,,2
1138,,"Tajó",,46.4730555555555555555555555555555555556,19.6505555555555555555555555555555555556,,,0,,,2
1139,,"Kiskunmajsa",,46.5016666666666666666666666666666666667,19.7280555555555555555555555555555555556,,,0,,,2
1140,,"Jászszentlászló",,46.5658333333333333333333333333333333333,19.7536111111111111111111111111111111111,,,0,,,2
1141,,"Galambos",,46.625,19.8011111111111111111111111111111111111,,,0,,,2
1142,,"Pestszentimre",,47.4022222222222222222222222222222222222,19.1886111111111111111111111111111111111,,,0,,,2
1143,,"Gyál felső",,47.3902777777777777777777777777777777778,19.2047222222222222222222222222222222222,,,0,,,2
1144,,"Gyál",,47.3766666666666666666666666666666666667,19.2194444444444444444444444444444444445,,,0,,,2
1145,,"Ócsa",,47.3013888888888888888888888888888888889,19.2322222222222222222222222222222222222,,,0,,,2
1146,,"Inárcs-Kakucs",,47.2472222222222222222222222222222222222,19.3177777777777777777777777777777777778,,,0,,,2
1147,,"Dabas",,47.1947222222222222222222222222222222222,19.3288888888888888888888888888888888889,,,0,,,2
1148,,"Gyón",,47.1783333333333333333333333333333333333,19.3555555555555555555555555555555555556,,,0,,,2
1149,,"Hernád",,47.1613888888888888888888888888888888889,19.4025,,,0,,,2
1162,,"Bakonygyirót",,47.4163888888888888888888888888888888889,17.8119444444444444444444444444444444444,,,0,,,2
1163,,"Vinye",,47.3602777777777777777777777777777777778,17.8194444444444444444444444444444444445,,,0,,,2
1164,,"Nemesgörzsöny",,47.3816666666666666666666666666666666667,17.4005555555555555555555555555555555556,,,0,,,2
1165,,"Rábahíd",,47.44,17.3358333333333333333333333333333333333,,,0,,,2
1166,,"Öskü",,47.1622222222222222222222222222222222222,18.0763888888888888888888888888888888889,,,0,,,2
1169,,"Márkó",,47.1275,17.8138888888888888888888888888888888889,,,0,,,2
1170,,"Nemeskocs",,47.2033333333333333333333333333333333333,17.1888888888888888888888888888888888889,,,0,,,2
1174,,"Zalagyömörő",,47.0111111111111111111111111111111111111,17.2208333333333333333333333333333333333,,,0,,,2
1175,,"Rigács",,47.0616666666666666666666666666666666667,17.1991666666666666666666666666666666667,,,0,,,2
1176,,"Kemenespálfa",,47.1397222222222222222222222222222222222,17.1830555555555555555555555555555555556,,,0,,,2
1178,,"Lentiszombathely",,46.6113888888888888888888888888888888889,16.5725,,,0,,,2
1179,,"Ortaháza",,46.6266666666666666666666666666666666667,16.6858333333333333333333333333333333333,,,0,,,2
1180,,"Rádiháza",,46.6547222222222222222222222222222222222,16.7658333333333333333333333333333333333,,,0,,,2
1181,,"Baktüttös",,46.6908333333333333333333333333333333333,16.8263888888888888888888888888888888889,,,0,,,2
1183,,"Budafa",,46.8516666666666666666666666666666666667,16.6247222222222222222222222222222222222,,,0,,,2
1184,,"Zalapatakalja",,46.8455555555555555555555555555555555556,16.6038888888888888888888888888888888889,,,0,,,2
1185,,"Tormásliget",,47.4305555555555555555555555555555555556,16.7816666666666666666666666666666666667,,,0,,,2
1189,,"Belecska",,46.64,18.4113888888888888888888888888888888889,,,0,,,2
1191,,"Almár",,47.9561111111111111111111111111111111111,20.3569444444444444444444444444444444444,,,0,,,2
1227,,"Vasútmúzeum",,47.5438888888888888888888888888888888889,19.0994444444444444444444444444444444444,,,0,,,2
1241,,"Abda",,47.6908333333333333333333333333333333333,17.5405555555555555555555555555555555556,,,0,,,2
1302,,"Barosstelep",,47.3988888888888888888888888888888888889,18.9891666666666666666666666666666666667,,,0,,,2
1550,,"Fegyvernek-Örményes",,47.1944444444444444444444444444444444444,20.5575,,,0,,,2
1621,,"Zagyvapálfalva",,48.0688888888888888888888888888888888889,19.785,,,0,,,2
1622,,"Salgótarján",,48.1055555555555555555555555555555555556,19.8072222222222222222222222222222222222,,,0,,,2
1623,,"Szabadisóstó",,46.9338888888888888888888888888888888889,18.1180555555555555555555555555555555556,,,0,,,2
1624,,"Siófok",,46.9077777777777777777777777777777777778,18.0538888888888888888888888888888888889,,,0,,,1
1625,,"Balatonszéplak felső",,46.8980555555555555555555555555555555556,18.0180555555555555555555555555555555556,,,0,,,2
1626,,"Balatonszéplak alsó",,46.8919444444444444444444444444444444444,17.9933333333333333333333333333333333333,,,0,,,2
1627,,"Zamárdi felső",,46.8861111111111111111111111111111111111,17.9694444444444444444444444444444444445,,,0,,,2
1628,,"Zamárdi",,46.88,17.9447222222222222222222222222222222222,,,0,,,2
1629,,"Szántód",,46.8619444444444444444444444444444444444,17.8991666666666666666666666666666666667,,,0,,,2
1631,,"Szőny-Déli",,47.7352777777777777777777777777777777778,18.1419444444444444444444444444444444444,,,0,,,2
1635,,"Várpalota",,47.1944444444444444444444444444444444444,18.1491666666666666666666666666666666667,,,0,,,2
1636,,"Pétfürdő",,47.1675,18.1213888888888888888888888888888888889,,,0,,,2
1637,,"Hajmáskér",,47.1411111111111111111111111111111111111,18.0094444444444444444444444444444444444,,,0,,,2
1638,,"Veszprém",,47.1188888888888888888888888888888888889,17.91,,,0,,,2
1639,,"Herend",,47.1369444444444444444444444444444444444,17.7602777777777777777777777777777777778,,,0,,,2
1641,,"Városlőd",,47.1441666666666666666666666666666666667,17.6527777777777777777777777777777777778,,,0,,,2
1642,,"Városlőd-Kislőd",,47.1338888888888888888888888888888888889,17.6311111111111111111111111111111111111,,,0,,,2
1643,,"Ajka",,47.1066666666666666666666666666666666667,17.5736111111111111111111111111111111111,,,0,,,2
1644,,"Ajka-Gyártelep",,47.0925,17.5366666666666666666666666666666666667,,,0,,,2
1646,,"Devecser",,47.1125,17.4352777777777777777777777777777777778,,,0,,,2
1647,,"Somlóvásárhely",,47.1244444444444444444444444444444444445,17.3691666666666666666666666666666666667,,,0,,,2
1648,,"Tüskevár",,47.1286111111111111111111111111111111111,17.3313888888888888888888888888888888889,,,0,,,2
1649,,"Karakószörcsök",,47.1336111111111111111111111111111111111,17.2877777777777777777777777777777777778,,,0,,,2
1650,,"Kerta",,47.1519444444444444444444444444444444444,17.2372222222222222222222222222222222222,,,0,,,2
1651,,"Boba",,47.1833333333333333333333333333333333333,17.1913888888888888888888888888888888889,,,0,,,2
1652,,"Börgönd",,47.1402777777777777777777777777777777778,18.515,,,0,,,2
1653,,"Belsőbáránd",,47.1027777777777777777777777777777777778,18.4997222222222222222222222222222222222,,,0,,,2
1664,,"Zichyújfalu",,47.1244444444444444444444444444444444445,18.6725,,,0,,,2
1665,,"Seregélyes",,47.1211111111111111111111111111111111111,18.5805555555555555555555555555555555556,,,0,,,2
1666,,"Polgárdi-Ipartelepek",,47.0791666666666666666666666666666666667,18.3144444444444444444444444444444444444,,,0,,,2
1667,,"Polgárdi",,47.07,18.2841666666666666666666666666666666667,,,0,,,2
1668,,"Füle",,47.05,18.2552777777777777777777777777777777778,,,0,,,2
1669,,"Zánka-Erzsébettábor",,46.8775,17.7091666666666666666666666666666666667,,,0,,,2
1670,,"Csajág",,47.0338888888888888888888888888888888889,18.1863888888888888888888888888888888889,,,0,,,2
1671,,"Balatonakarattya",,47.0172222222222222222222222222222222222,18.1677777777777777777777777777777777778,,,0,,,2
1672,,"Csittényhegy",,47.0252777777777777777777777777777777778,18.1375,,,0,,,2
1673,,"Balatonkenese",,47.0325,18.1055555555555555555555555555555555556,,,0,,,2
1674,,"Balatonfűzfő",,47.0602777777777777777777777777777777778,18.0425,,,0,,,2
1675,,"Balatonalmádi",,47.0283333333333333333333333333333333333,18.015,,,0,,,2
1676,,"Káptalanfüred",,47.0088888888888888888888888888888888889,18.0038888888888888888888888888888888889,,,0,,,2
1677,,"Alsóörs",,46.9852777777777777777777777777777777778,17.9747222222222222222222222222222222222,,,0,,,2
1678,,"Csopak",,46.9747222222222222222222222222222222222,17.9311111111111111111111111111111111111,,,0,,,2
1679,,"Balatonarács",,46.9625,17.8975,,,0,,,2
1680,,"Balatonfüred",,46.9558333333333333333333333333333333333,17.8830555555555555555555555555555555556,,,0,,,2
1681,,"Aszófő",,46.9255555555555555555555555555555555556,17.8325,,,0,,,2
1682,,"Örvényes",,46.9125,17.8180555555555555555555555555555555556,,,0,,,2
1683,,"Balatonudvari",,46.9047222222222222222222222222222222222,17.8080555555555555555555555555555555556,,,0,,,2
1684,,"Fövenyes",,46.8936111111111111111111111111111111111,17.7894444444444444444444444444444444444,,,0,,,2
1685,,"Balatonakali-Dörgicse",,46.88,17.7477777777777777777777777777777777778,,,0,,,2
1686,,"Zánka-Köveskál",,46.8727777777777777777777777777777777778,17.6877777777777777777777777777777777778,,,0,,,2
1687,,"Balatonszepezd",,46.8511111111111111111111111111111111111,17.6630555555555555555555555555555555556,,,0,,,2
1688,,"Szepezdfürdő",,46.8397222222222222222222222222222222222,17.6494444444444444444444444444444444444,,,0,,,2
1689,,"Révfülöp",,46.8291666666666666666666666666666666667,17.6322222222222222222222222222222222222,,,0,,,2
1690,,"Balatonrendes",,46.8247222222222222222222222222222222222,17.5827777777777777777777777777777777778,,,0,,,2
1691,,"Ábrahámhegy",,46.815,17.5722222222222222222222222222222222222,,,0,,,2
1692,,"Badacsonyörs",,46.8055555555555555555555555555555555556,17.5316666666666666666666666666666666667,,,0,,,2
1693,,"Kisújszállás",,47.2238888888888888888888888888888888889,20.7511111111111111111111111111111111111,,,0,,,2
1695,,"Karcag",,47.3033333333333333333333333333333333333,20.9280555555555555555555555555555555556,,,0,,,2
1697,,"Püspökladány",,47.3275,21.1288888888888888888888888888888888889,,,0,,,1
1698,,"Kaba",,47.3688888888888888888888888888888888889,21.2594444444444444444444444444444444444,,,0,,,2
1699,,"Hajdúszoboszló",,47.4294444444444444444444444444444444445,21.4069444444444444444444444444444444444,,,0,,,2
1700,,"Ebes",,47.4627777777777777777777777777777777778,21.4888888888888888888888888888888888889,,,0,,,2
1701,,"Debrecen",,47.5202777777777777777777777777777777778,21.6286111111111111111111111111111111111,,,0,,,1
1702,,"Debrecen-Csapókert",,47.5405555555555555555555555555555555556,21.6480555555555555555555555555555555556,,,0,,,2
1703,,"Apafa",,47.5802777777777777777777777777777777778,21.6558333333333333333333333333333333333,,,0,,,2
1704,,"Bocskaikert",,47.6425,21.6663888888888888888888888888888888889,,,0,,,2
1705,,"Hajdúhadház",,47.6869444444444444444444444444444444444,21.6791666666666666666666666666666666667,,,0,,,2
1706,,"Téglás",,47.7147222222222222222222222222222222222,21.6847222222222222222222222222222222222,,,0,,,2
1708,,"Újfehértó",,47.8144444444444444444444444444444444444,21.7063888888888888888888888888888888889,,,0,,,2
1710,,"Nyíregyháza",,47.9466666666666666666666666666666666667,21.7055555555555555555555555555555555556,,,0,,,1
1711,,"Sóstó",,47.9977777777777777777777777777777777778,21.7288888888888888888888888888888888889,,,0,,,2
1712,,"Sóstóhegy",,48.0122222222222222222222222222222222222,21.7427777777777777777777777777777777778,,,0,,,2
1713,,"Kemecse",,48.0655555555555555555555555555555555556,21.8016666666666666666666666666666666667,,,0,,,2
1714,,"Nyírbogdány",,48.0822222222222222222222222222222222222,21.8552777777777777777777777777777777778,,,0,,,2
1715,,"Kék",,48.0933333333333333333333333333333333333,21.8838888888888888888888888888888888889,,,0,,,2
1716,,"Demecser",,48.1116666666666666666666666666666666667,21.9266666666666666666666666666666666667,,,0,,,2
1717,,"Gégény",,48.1283333333333333333333333333333333333,21.9519444444444444444444444444444444444,,,0,,,2
1718,,"Pátroha",,48.1586111111111111111111111111111111111,21.9966666666666666666666666666666666667,,,0,,,2
1719,,"Ajak",,48.1863888888888888888888888888888888889,22.0488888888888888888888888888888888889,,,0,,,2
1720,,"Kisvárda",,48.2083333333333333333333333333333333333,22.0783333333333333333333333333333333333,,,0,,,2
1721,,"Kisvárda-Hármasút",,48.2283333333333333333333333333333333333,22.0919444444444444444444444444444444444,,,0,,,2
1722,,"Fényeslitke",,48.2672222222222222222222222222222222222,22.1072222222222222222222222222222222222,,,0,,,2
1723,,"Komoró",,48.3052777777777777777777777777777777778,22.1180555555555555555555555555555555556,,,0,,,2
1724,,"Tuzsér",,48.3422222222222222222222222222222222222,22.1316666666666666666666666666666666667,,,0,,,2
1725,,"Tiszabezdéd",,48.3713888888888888888888888888888888889,22.145,,,0,,,2
1726,,"Záhony",,48.4022222222222222222222222222222222222,22.1836111111111111111111111111111111111,,,0,,,1
1727,,"Karcag-Vásártér",,47.3225,20.9075,,,0,,,2
1728,,"Berekfürdő",,47.3747222222222222222222222222222222222,20.8272222222222222222222222222222222222,,,0,,,2
1729,,"Kunmadaras",,47.4152777777777777777777777777777777778,20.7930555555555555555555555555555555556,,,0,,,2
1730,,"Tiszaszentimre",,47.4908333333333333333333333333333333333,20.7330555555555555555555555555555555556,,,0,,,2
1731,,"Tiszaszőlős",,47.5555555555555555555555555555555555556,20.7280555555555555555555555555555555556,,,0,,,2
1733,,"Hosszúhát",,47.2355555555555555555555555555555555556,21.1019444444444444444444444444444444444,,,0,,,2
1734,,"Szerep",,47.2344444444444444444444444444444444444,21.1458333333333333333333333333333333333,,,0,,,2
1735,,"Sárrétudvari",,47.2316666666666666666666666666666666667,21.1808333333333333333333333333333333333,,,0,,,2
1736,,"Biharnagybajom",,47.2088888888888888888888888888888888889,21.2219444444444444444444444444444444445,,,0,,,2
1737,,"Füzesgyarmat",,47.1130555555555555555555555555555555556,21.1944444444444444444444444444444444444,,,0,,,2
1738,,"Füzesgyarmatfürdő",,47.0936111111111111111111111111111111111,21.2013888888888888888888888888888888889,,,0,,,2
1739,,"Báránd",,47.2997222222222222222222222222222222222,21.2352777777777777777777777777777777778,,,0,,,2
1740,,"Sáp",,47.2597222222222222222222222222222222222,21.3605555555555555555555555555555555556,,,0,,,2
1741,,"Berettyóújfalu",,47.2119444444444444444444444444444444444,21.5355555555555555555555555555555555556,,,0,,,2
1742,,"Mezőpeterd",,47.1761111111111111111111111111111111111,21.6252777777777777777777777777777777778,,,0,,,2
1743,,"Biharkeresztes",,47.1355555555555555555555555555555555556,21.7213888888888888888888888888888888889,,,0,,,2
1744,,"Tócóvölgy",,47.5294444444444444444444444444444444445,21.5888888888888888888888888888888888889,,,0,,,2
1747,,"Sáregres",,46.7825,18.5888888888888888888888888888888888889,,,0,,,2
1748,,"Simontornya",,46.7558333333333333333333333333333333333,18.5397222222222222222222222222222222222,,,0,,,2
1749,,"Tolnanémedi",,46.7277777777777777777777777777777777778,18.4758333333333333333333333333333333333,,,0,,,2
1750,,"Pincehely",,46.6813888888888888888888888888888888889,18.43,,,0,,,2
1751,,"Keszőhidegkút-Gyönk",,46.5977777777777777777777777777777777778,18.4261111111111111111111111111111111111,,,0,,,2
1752,,"Szárazd",,46.5755555555555555555555555555555555556,18.4208333333333333333333333333333333333,,,0,,,2
1753,,"Regöly",,46.5688888888888888888888888888888888889,18.3961111111111111111111111111111111111,,,0,,,2
1754,,"Szakály-Hőgyész",,46.5236111111111111111111111111111111111,18.3894444444444444444444444444444444444,,,0,,,2
1755,,"Dúzs",,46.4938888888888888888888888888888888889,18.3772222222222222222222222222222222222,,,0,,,2
1756,,"Csibrák",,46.4666666666666666666666666666666666667,18.3363888888888888888888888888888888889,,,0,,,2
1757,,"Kurd",,46.4491666666666666666666666666666666667,18.3191666666666666666666666666666666667,,,0,,,2
1758,,"Döbrököz",,46.4188888888888888888888888888888888889,18.255,,,0,,,2
1759,,"Dombóvár",,46.37,18.1497222222222222222222222222222222222,,,0,,,1
1760,,"Dombóvár alsó",,46.3638888888888888888888888888888888889,18.1341666666666666666666666666666666667,,,0,,,2
1765,,"Somoskőújfalu",,48.1547222222222222222222222222222222222,19.8155555555555555555555555555555555556,,,0,,,2
1766,,"Jászfényszaru",,47.5930555555555555555555555555555555556,19.7544444444444444444444444444444444444,,,0,,,2
1767,,"Pusztamonostor",,47.5644444444444444444444444444444444444,19.7941666666666666666666666666666666667,,,0,,,2
1768,,"Jászberény",,47.4944444444444444444444444444444444444,19.8933333333333333333333333333333333333,,,0,,,2
1769,,"Meggyespele",,47.4419444444444444444444444444444444444,19.9388888888888888888888888888888888889,,,0,,,2
1770,,"Portelek",,47.4180555555555555555555555555555555556,19.9588888888888888888888888888888888889,,,0,,,2
1771,,"Jászboldogháza-Jánoshida",,47.3669444444444444444444444444444444445,20.0013888888888888888888888888888888889,,,0,,,2
1773,,"Jászárokszállás",,47.6355555555555555555555555555555555556,19.9711111111111111111111111111111111111,,,0,,,2
1774,,"Jászdózsa",,47.5630555555555555555555555555555555556,20.0280555555555555555555555555555555556,,,0,,,2
1775,,"Jászapáti",,47.5136111111111111111111111111111111111,20.155,,,0,,,2
1776,,"Jászkisér",,47.4561111111111111111111111111111111111,20.2033333333333333333333333333333333333,,,0,,,2
1777,,"Jászladány",,47.3733333333333333333333333333333333333,20.1591666666666666666666666666666666667,,,0,,,2
1778,,"Szászberek",,47.3205555555555555555555555555555555556,20.0908333333333333333333333333333333333,,,0,,,2
1779,,"Gyöngyöshalász",,47.7430555555555555555555555555555555556,19.9322222222222222222222222222222222222,,,0,,,2
1780,,"Gyöngyös",,47.7830555555555555555555555555555555556,19.9372222222222222222222222222222222222,,,0,,,2
1794,,"Erdőtelek",,47.6833333333333333333333333333333333333,20.3025,,,0,,,2
1795,,"Heves",,47.6094444444444444444444444444444444444,20.3061111111111111111111111111111111111,,,0,,,2
1796,,"Hevesvezekény",,47.5622222222222222222222222222222222222,20.3658333333333333333333333333333333333,,,0,,,2
1797,,"Tarnaszentmiklós",,47.5469444444444444444444444444444444444,20.3908333333333333333333333333333333333,,,0,,,2
1798,,"Kisköre",,47.4955555555555555555555555555555555556,20.4816666666666666666666666666666666667,,,0,,,2
1799,,"Abádszalók",,47.4552777777777777777777777777777777778,20.5530555555555555555555555555555555556,,,0,,,2
1801,,"Kunhegyes",,47.3766666666666666666666666666666666667,20.6411111111111111111111111111111111111,,,0,,,2
1802,,"Kenderes",,47.2544444444444444444444444444444444444,20.6861111111111111111111111111111111111,,,0,,,2
1803,,"Maklár",,47.8080555555555555555555555555555555556,20.4047222222222222222222222222222222222,,,0,,,2
1804,,"Andornaktálya",,47.8525,20.4019444444444444444444444444444444444,,,0,,,2
1805,,"Eger",,47.8916666666666666666666666666666666667,20.3816666666666666666666666666666666667,,,0,,,2
1806,,"Egervár",,47.9080555555555555555555555555555555556,20.3805555555555555555555555555555555556,,,0,,,2
1807,,"Eger-Felnémet",,47.9366666666666666666666666666666666667,20.3705555555555555555555555555555555556,,,0,,,2
1808,,"Szarvaskő",,47.9886111111111111111111111111111111111,20.3325,,,0,,,2
1809,,"Mónosbél",,48.0319444444444444444444444444444444445,20.33,,,0,,,2
1810,,"Bélapátfalva",,48.0555555555555555555555555555555555556,20.3405555555555555555555555555555555556,,,0,,,2
1811,,"Bélapátfalvi Cementgyár",,48.0580555555555555555555555555555555556,20.355,,,0,,,2
1812,,"Szilvásvárad",,48.1133333333333333333333333333333333333,20.3791666666666666666666666666666666667,,,0,,,2
1817,,"Hejőkeresztúr",,47.9602777777777777777777777777777777778,20.8694444444444444444444444444444444445,,,0,,,2
1818,,"Tiszaújváros",,47.9261111111111111111111111111111111111,21.0305555555555555555555555555555555556,,,0,,,2
1823,,"Miskolc-Gömöri",,48.1066666666666666666666666666666666667,20.8002777777777777777777777777777777778,,,0,,,2
1824,,"Sajókeresztúr",,48.1644444444444444444444444444444444444,20.7725,,,0,,,2
1825,,"Sajóecseg",,48.1861111111111111111111111111111111111,20.7666666666666666666666666666666666667,,,0,,,2
1827,,"Sajószentpéter",,48.2222222222222222222222222222222222222,20.7080555555555555555555555555555555556,,,0,,,2
1829,,"Kazincbarcika",,48.2644444444444444444444444444444444444,20.6275,,,0,,,2
1830,,"Sajókaza",,48.2727777777777777777777777777777777778,20.5819444444444444444444444444444444445,,,0,,,2
1831,,"Vadna",,48.2763888888888888888888888888888888889,20.5552777777777777777777777777777777778,,,0,,,2
1832,,"Dubicsány",,48.2808333333333333333333333333333333333,20.5047222222222222222222222222222222222,,,0,,,2
1833,,"Raposka",,46.8513888888888888888888888888888888889,17.4127777777777777777777777777777777778,,,0,,,2
1835,,"Ivacs",,47.6419444444444444444444444444444444444,19.2738888888888888888888888888888888889,,,0,,,2
1836,,"Kisköre-Tiszahíd",,47.4638888888888888888888888888888888889,20.5486111111111111111111111111111111111,,,0,,,2
1837,,"Rozsály",,47.9127777777777777777777777777777777778,22.7825,,,0,,,2
1838,,"Pusztakettős",,47.4536111111111111111111111111111111111,20.7497222222222222222222222222222222222,,,0,,,2
1839,,"Kisvác",,47.7952777777777777777777777777777777778,19.1136111111111111111111111111111111111,,,0,,,2
1840,,"Tiszafüred-Gyártelep",,47.6075,20.7361111111111111111111111111111111111,,,0,,,2
1849,,"Újkenéz",,48.2511111111111111111111111111111111111,22.2216666666666666666666666666666666667,,,0,,,2
1858,,"Püspökladány-Vásártér",,47.3191666666666666666666666666666666667,21.0961111111111111111111111111111111111,,,0,,,2
1860,,"Végegyháza alsó",,46.3675,20.8669444444444444444444444444444444445,,,0,,,2
1861,,"Orosháza felső",,46.5536111111111111111111111111111111111,20.6552777777777777777777777777777777778,,,0,,,2
1863,,"Ambrózfalva",,46.3530555555555555555555555555555555556,20.7405555555555555555555555555555555556,,,0,,,2
1865,,"Alsónyék",,46.1994444444444444444444444444444444444,18.7380555555555555555555555555555555556,,,0,,,2
1866,,"Tompapuszta",,46.3213888888888888888888888888888888889,20.9663888888888888888888888888888888889,,,0,,,2
1867,,"Halászlak",,46.9116666666666666666666666666666666667,20.5622222222222222222222222222222222222,,,0,,,2
1868,,"Sirató",,46.8405555555555555555555555555555555556,20.61,,,0,,,2
1869,,"Csabacsűd felső",,46.8291666666666666666666666666666666667,20.6491666666666666666666666666666666667,,,0,,,2
1871,,"Orosháza-Üveggyár",,46.5797222222222222222222222222222222222,20.6836111111111111111111111111111111111,,,0,,,2
1874,,"Gyulai városerdő",,46.6947222222222222222222222222222222222,21.3227777777777777777777777777777777778,,,0,,,2
1877,,"Kórógyszentgyörgy",,46.5611111111111111111111111111111111111,20.225,,,0,,,2
1882,,"Kunszállás",,46.7844444444444444444444444444444444444,19.7672222222222222222222222222222222222,,,0,,,2
1883,,"Selymes",,46.6555555555555555555555555555555555556,19.8536111111111111111111111111111111111,,,0,,,2
1884,,"Petőfiszállási tanyák",,46.5883333333333333333333333333333333333,19.8747222222222222222222222222222222222,,,0,,,2
1885,,"Kisteleki szőlők",,46.5141666666666666666666666666666666667,19.9286111111111111111111111111111111111,,,0,,,2
1886,,"Kapitányság",,46.4352777777777777777777777777777777778,19.9877777777777777777777777777777777778,,,0,,,2
1887,,"Őszeszék",,46.39,20.0161111111111111111111111111111111111,,,0,,,2
1888,,"Vilmaszállás",,46.3663888888888888888888888888888888889,20.0308333333333333333333333333333333333,,,0,,,2
1889,,"Jánosszállás",,46.3330555555555555555555555555555555556,20.0519444444444444444444444444444444444,,,0,,,2
1890,,"Felsőpakony",,47.3430555555555555555555555555555555556,19.2305555555555555555555555555555555556,,,0,,,2
1892,,"Felsőméntelek",,46.9869444444444444444444444444444444444,19.5586111111111111111111111111111111111,,,0,,,2
1893,,"Alsóméntelek",,46.9613888888888888888888888888888888889,19.5788888888888888888888888888888888889,,,0,,,2
1894,,"Nagynyír",,46.935,19.5919444444444444444444444444444444444,,,0,,,2
1895,,"Úrihegy",,46.9177777777777777777777777777777777778,19.6213888888888888888888888888888888889,,,0,,,2
1896,,"Miklóstelep",,46.9133333333333333333333333333333333333,19.6308333333333333333333333333333333333,,,0,,,2
1897,,"Tiszajenő alsó",,47.0169444444444444444444444444444444445,20.1344444444444444444444444444444444444,,,0,,,2
1898,,"Óbög",,46.9872222222222222222222222222222222222,20.1111111111111111111111111111111111111,,,0,,,2
1899,,"Árpádszállás",,46.8663888888888888888888888888888888889,19.9894444444444444444444444444444444444,,,0,,,2
1900,,"Tőserdő",,46.8511111111111111111111111111111111111,19.9802777777777777777777777777777777778,,,0,,,2
1901,,"Tiszaalpár felső",,46.8361111111111111111111111111111111111,19.9766666666666666666666666666666666667,,,0,,,2
1902,,"Borsihalom",,46.7730555555555555555555555555555555556,19.92,,,0,,,2
1903,,"Kismindszenti út",,46.7536111111111111111111111111111111111,19.8877777777777777777777777777777777778,,,0,,,2
1904,,"Petőfiváros",,46.7255555555555555555555555555555555556,19.8486111111111111111111111111111111111,,,0,,,2
1905,,"Csorna",,47.6019444444444444444444444444444444444,17.2488888888888888888888888888888888889,,,0,,,1
1979,,"Szorgalmatos",,47.9866666666666666666666666666666666667,21.3663888888888888888888888888888888889,,,0,,,2
1981,,"Fótfürdő",,47.6225,19.2005555555555555555555555555555555556,,,0,,,2
1982,,"Fenyveshegy",,47.8183333333333333333333333333333333333,19.0680555555555555555555555555555555556,,,0,,,2
2002,,"Hűvösvölgy",,47.5411111111111111111111111111111111111,18.9633333333333333333333333333333333333,,,0,,,2
2003,,"Hárshegy",,47.5352777777777777777777777777777777778,18.9613888888888888888888888888888888889,,,0,,,2
2004,,"Szépjuhászné",,47.5280555555555555555555555555555555556,18.955,,,0,,,2
2005,,"Jánoshegy",,47.5141666666666666666666666666666666667,18.9502777777777777777777777777777777778,,,0,,,2
2006,,"Virágvölgy",,47.5058333333333333333333333333333333333,18.9586111111111111111111111111111111111,,,0,,,2
2007,,"Csillebérc",,47.4980555555555555555555555555555555556,18.9616666666666666666666666666666666667,,,0,,,2
2008,,"Normafa",,47.5,18.9705555555555555555555555555555555556,,,0,,,2
2009,,"Széchenyihegy",,47.4938888888888888888888888888888888889,18.9769444444444444444444444444444444445,,,0,,,2
2012,,"Balatonfőkajár felső",,47.0313888888888888888888888888888888889,18.2152777777777777777777777777777777778,,,0,,,2
2013,,"Piroska",,47.1483333333333333333333333333333333333,20.1297222222222222222222222222222222222,,,0,,,2
2018,,"Somodor",,46.4725,17.8366666666666666666666666666666666667,,,0,,,2
2020,,"Középmező",,45.9958333333333333333333333333333333333,18.6688888888888888888888888888888888889,,,0,,,2
2022,,"Jobbágyi",,47.8288888888888888888888888888888888889,19.6875,,,0,,,2
2121,,"Ferihegy",,47.4372222222222222222222222222222222222,19.2238888888888888888888888888888888889,,,0,,,2
2167,,"Máriapócs",,47.8527777777777777777777777777777777778,22.0191666666666666666666666666666666667,,,0,,,2
2168,,"Máriaudvar",,47.7519444444444444444444444444444444444,19.165,,,0,,,2
2404,,"Nagyberki",,46.3533333333333333333333333333333333333,18.0041666666666666666666666666666666667,,,0,,,2
2476,,"Badacsonytomaj",,46.8047222222222222222222222222222222222,17.5180555555555555555555555555555555556,,,0,,,2
2477,,"Badacsony",,46.7886111111111111111111111111111111111,17.5063888888888888888888888888888888889,,,0,,,2
2478,,"Badacsonylábdihegy",,46.7938888888888888888888888888888888889,17.4708333333333333333333333333333333333,,,0,,,2
2479,,"Badacsonytördemic-Szigliget",,46.8097222222222222222222222222222222222,17.4691666666666666666666666666666666667,,,0,,,2
2480,,"Nemesgulács-Kisapáti",,46.8369444444444444444444444444444444444,17.4763888888888888888888888888888888889,,,0,,,2
2481,,"Tapolca",,46.8777777777777777777777777777777777778,17.4286111111111111111111111111111111111,,,0,,,2
2483,,"Uzsabánya alsó",,46.8983333333333333333333333333333333333,17.3452777777777777777777777777777777778,,,0,,,2
2484,,"Uzsa",,46.9202777777777777777777777777777777778,17.3316666666666666666666666666666666667,,,0,,,2
2485,,"Sümegi Bazaltbánya",,46.9525,17.2925,,,0,,,2
2486,,"Sümeg",,46.9811111111111111111111111111111111111,17.2708333333333333333333333333333333333,,,0,,,2
2487,,"Gógánfa",,47.0211111111111111111111111111111111111,17.2077777777777777777777777777777777778,,,0,,,2
2488,,"Ukk",,47.0419444444444444444444444444444444444,17.1958333333333333333333333333333333333,,,0,,,2
2489,,"Nemeskeresztúr",,47.0936111111111111111111111111111111111,17.1836111111111111111111111111111111111,,,0,,,2
2490,,"Jánosháza",,47.1158333333333333333333333333333333333,17.1716666666666666666666666666666666667,,,0,,,2
2493,,"Keszthely",,46.7583333333333333333333333333333333333,17.2480555555555555555555555555555555556,,,0,,,1
2494,,"Alsógyenes",,46.7655555555555555555555555555555555556,17.2777777777777777777777777777777777778,,,0,,,2
2495,,"Gyenesdiás",,46.7633333333333333333333333333333333333,17.2927777777777777777777777777777777778,,,0,,,2
2496,,"Vonyarcvashegy",,46.7552777777777777777777777777777777778,17.3183333333333333333333333333333333333,,,0,,,2
2497,,"Balatongyörök",,46.7519444444444444444444444444444444444,17.3544444444444444444444444444444444444,,,0,,,2
2498,,"Becehegy",,46.7761111111111111111111111111111111111,17.3727777777777777777777777777777777778,,,0,,,2
2499,,"Balatonederics",,46.8025,17.385,,,0,,,2
2500,,"Dabronc",,47.0152777777777777777777777777777777778,17.1336111111111111111111111111111111111,,,0,,,2
2502,,"Türje",,46.9944444444444444444444444444444444444,17.0936111111111111111111111111111111111,,,0,,,2
2503,,"Zalabér-Batyk",,46.9830555555555555555555555555555555556,17.0408333333333333333333333333333333333,,,0,,,2
2504,,"Pakod",,46.9591666666666666666666666666666666667,16.9966666666666666666666666666666666667,,,0,,,2
2505,,"Pókaszepetk",,46.9244444444444444444444444444444444445,16.9722222222222222222222222222222222222,,,0,,,2
2506,,"Kemendollár",,46.9058333333333333333333333333333333333,16.9466666666666666666666666666666666667,,,0,,,2
2507,,"Zalaegerszeg",,46.8330555555555555555555555555555555556,16.8483333333333333333333333333333333333,,,0,,,1
2508,,"Bocfölde",,46.7802777777777777777777777777777777778,16.8536111111111111111111111111111111111,,,0,,,2
2509,,"Sárhida",,46.7558333333333333333333333333333333333,16.8513888888888888888888888888888888889,,,0,,,2
2510,,"Bak",,46.7325,16.8491666666666666666666666666666666667,,,0,,,2
2511,,"Tófej",,46.6708333333333333333333333333333333333,16.8019444444444444444444444444444444444,,,0,,,2
2512,,"Gutorfölde",,46.6469444444444444444444444444444444444,16.7397222222222222222222222222222222222,,,0,,,2
2513,,"Csömödér-Páka",,46.6080555555555555555555555555555555556,16.6411111111111111111111111111111111111,,,0,,,2
2514,,"Iklódbördőce",,46.6030555555555555555555555555555555556,16.6047222222222222222222222222222222222,,,0,,,2
2515,,"Lenti",,46.6213888888888888888888888888888888889,16.5286111111111111111111111111111111111,,,0,,,2
2516,,"Rédics",,46.6180555555555555555555555555555555556,16.4711111111111111111111111111111111111,,,0,,,2
2519,,"Zalalövő",,46.8455555555555555555555555555555555556,16.5763888888888888888888888888888888889,,,0,,,2
2520,,"Zalaegerszeg-Ola",,46.8491666666666666666666666666666666667,16.8447222222222222222222222222222222222,,,0,,,2
2521,,"Andráshida",,46.8627777777777777777777777777777777778,16.78,,,0,,,2
2522,,"Bagod",,46.875,16.7461111111111111111111111111111111111,,,0,,,2
2523,,"Zalaszentgyörgy",,46.8722222222222222222222222222222222222,16.7125,,,0,,,2
2524,,"Zalacséb-Salomvár",,46.8580555555555555555555555555555555556,16.6622222222222222222222222222222222222,,,0,,,2
2526,,"Kópháza",,47.6313888888888888888888888888888888889,16.6375,,,0,,,2
2527,,"Nagycenk",,47.6011111111111111111111111111111111111,16.6902777777777777777777777777777777778,,,0,,,2
2529,,"Sopronkövesd",,47.5483333333333333333333333333333333333,16.7480555555555555555555555555555555556,,,0,,,2
2530,,"Lövő",,47.5094444444444444444444444444444444444,16.7775,,,0,,,2
2532,,"Újkér",,47.4577777777777777777777777777777777778,16.7866666666666666666666666666666666667,,,0,,,2
2533,,"Bük",,47.3886111111111111111111111111111111111,16.7522222222222222222222222222222222222,,,0,,,1
2534,,"Acsád",,47.3083333333333333333333333333333333333,16.7347222222222222222222222222222222222,,,0,,,2
2535,,"Salköveskút-Vassurány",,47.2913888888888888888888888888888888889,16.7041666666666666666666666666666666667,,,0,,,2
2544,,"Zalaszentiván",,46.8875,16.9094444444444444444444444444444444444,,,0,,,2
2545,,"Alsónemesapáti",,46.8541666666666666666666666666666666667,16.9363888888888888888888888888888888889,,,0,,,2
2547,,"Józsa",,47.6008333333333333333333333333333333333,21.5844444444444444444444444444444444444,,,0,,,2
2548,,"Hajdúszentgyörgy",,47.6080555555555555555555555555555555556,21.5783333333333333333333333333333333333,,,0,,,2
2549,,"Zelemér",,47.6277777777777777777777777777777777778,21.5783333333333333333333333333333333333,,,0,,,2
2550,,"Hajdúböszörmény",,47.6680555555555555555555555555555555556,21.5241666666666666666666666666666666667,,,0,,,2
2551,,"Hajdúvid",,47.7494444444444444444444444444444444444,21.5080555555555555555555555555555555556,,,0,,,2
2552,,"Hajdúdorog",,47.8055555555555555555555555555555555556,21.4930555555555555555555555555555555556,,,0,,,2
2553,,"Hajdúnánás",,47.8319444444444444444444444444444444445,21.4266666666666666666666666666666666667,,,0,,,2
2554,,"Hajdúnánás-Vásártér",,47.8430555555555555555555555555555555556,21.4072222222222222222222222222222222222,,,0,,,2
2555,,"Tedej",,47.9036111111111111111111111111111111111,21.4044444444444444444444444444444444444,,,0,,,2
2556,,"Tiszavasvári",,47.9452777777777777777777777777777777778,21.3747222222222222222222222222222222222,,,0,,,2
2557,,"Egyházerdő",,47.9725,21.365,,,0,,,2
2567,,"Tiszalök",,48.0130555555555555555555555555555555556,21.3691666666666666666666666666666666667,,,0,,,2
2568,,"Hajnalos",,47.9988888888888888888888888888888888889,21.4141666666666666666666666666666666667,,,0,,,2
2569,,"Kisfástanya",,47.9891666666666666666666666666666666667,21.47,,,0,,,2
2570,,"Tiszaeszlár",,48.0105555555555555555555555555555555556,21.4919444444444444444444444444444444444,,,0,,,2
2571,,"Bashalom",,48.0261111111111111111111111111111111111,21.5147222222222222222222222222222222222,,,0,,,2
2573,,"Sáránd",,47.4155555555555555555555555555555555556,21.625,,,0,,,2
2574,,"Derecske",,47.365,21.5841666666666666666666666666666666667,,,0,,,2
2575,,"Derecske-Vásártér",,47.3522222222222222222222222222222222222,21.58,,,0,,,2
2576,,"Konyár",,47.3236111111111111111111111111111111111,21.6661111111111111111111111111111111111,,,0,,,2
2577,,"Konyári Sóstófürdő",,47.3241666666666666666666666666666666667,21.7444444444444444444444444444444444444,,,0,,,2
2578,,"Pocsaj-Esztár",,47.2883333333333333333333333333333333333,21.7930555555555555555555555555555555556,,,0,,,2
2579,,"Kismarja",,47.2438888888888888888888888888888888889,21.8138888888888888888888888888888888889,,,0,,,2
2580,,"Nagykereki",,47.1916666666666666666666666666666666667,21.8,,,0,,,2
2585,,"Debrecen-Szabadságtelep",,47.5277777777777777777777777777777777778,21.6586111111111111111111111111111111111,,,0,,,2
2586,,"Debrecen-Kondoros",,47.5255555555555555555555555555555555556,21.7138888888888888888888888888888888889,,,0,,,2
2587,,"Nagycsere",,47.5238888888888888888888888888888888889,21.7630555555555555555555555555555555556,,,0,,,2
2588,,"Haláp",,47.5216666666666666666666666666666666667,21.8183333333333333333333333333333333333,,,0,,,2
2589,,"Vámospércs",,47.5180555555555555555555555555555555556,21.8938888888888888888888888888888888889,,,0,,,2
2590,,"Szentannapuszta",,47.52,21.9658333333333333333333333333333333333,,,0,,,2
2591,,"Nyírábrány",,47.5238888888888888888888888888888888889,22.0169444444444444444444444444444444445,,,0,,,2
2592,,"Dombostanya",,47.6027777777777777777777777777777777778,21.7063888888888888888888888888888888889,,,0,,,2
2593,,"Hajdúsámson",,47.6080555555555555555555555555555555556,21.7552777777777777777777777777777777778,,,0,,,2
2594,,"Tamásipuszta",,47.6327777777777777777777777777777777778,21.7961111111111111111111111111111111111,,,0,,,2
2595,,"Aradványpuszta",,47.6627777777777777777777777777777777778,21.8425,,,0,,,2
2596,,"Nyíradony",,47.6994444444444444444444444444444444444,21.9033333333333333333333333333333333333,,,0,,,2
2597,,"Nyírmihálydi",,47.7375,21.9588888888888888888888888888888888889,,,0,,,2
2598,,"Nyírgelse",,47.7508333333333333333333333333333333333,21.9877777777777777777777777777777777778,,,0,,,2
2599,,"Nyírbogát",,47.7930555555555555555555555555555555556,22.0663888888888888888888888888888888889,,,0,,,2
2600,,"Nagykálló",,47.8711111111111111111111111111111111111,21.8258333333333333333333333333333333333,,,0,,,2
2601,,"Kállósemjén",,47.8547222222222222222222222222222222222,21.935,,,0,,,2
2602,,"Nyírbátor",,47.8425,22.1311111111111111111111111111111111111,,,0,,,2
2603,,"Nyírcsászári",,47.8655555555555555555555555555555555556,22.1791666666666666666666666666666666667,,,0,,,2
2604,,"Hodász",,47.8961111111111111111111111111111111111,22.2136111111111111111111111111111111111,,,0,,,2
2605,,"Nyírmeggyes",,47.9225,22.2566666666666666666666666666666666667,,,0,,,2
2606,,"Mátészalka",,47.9513888888888888888888888888888888889,22.3133333333333333333333333333333333333,,,0,,,1
2607,,"Kocsord",,47.9419444444444444444444444444444444444,22.3758333333333333333333333333333333333,,,0,,,2
2608,,"Kocsord alsó",,47.9463888888888888888888888888888888889,22.4005555555555555555555555555555555556,,,0,,,2
2609,,"Győrtelek",,47.9366666666666666666666666666666666667,22.4247222222222222222222222222222222222,,,0,,,2
2610,,"Győrtelek alsó",,47.9211111111111111111111111111111111111,22.4433333333333333333333333333333333333,,,0,,,2
2611,,"Ököritófülpös",,47.9113888888888888888888888888888888889,22.495,,,0,,,2
2612,,"Porcsalma-Tyukod",,47.8680555555555555555555555555555555556,22.5683333333333333333333333333333333333,,,0,,,2
2614,,"Csenger",,47.8261111111111111111111111111111111111,22.6663888888888888888888888888888888889,,,0,,,2
2690,,"Kisfái",,46.8880555555555555555555555555555555556,19.8072222222222222222222222222222222222,,,0,,,2
2691,,"Nyárlőrinci szőlők",,46.8775,19.8283333333333333333333333333333333333,,,0,,,2
2692,,"Nyárlőrinc alsó",,46.8638888888888888888888888888888888889,19.8788888888888888888888888888888888889,,,0,,,2
2693,,"Tiszaug-Tiszahídfő",,46.8658333333333333333333333333333333333,20.0519444444444444444444444444444444444,,,0,,,2
2695,,"Csongrádi úti tanyák",,46.6902777777777777777777777777777777778,19.9216666666666666666666666666666666667,,,0,,,2
2696,,"Kettőshalom",,46.6891666666666666666666666666666666667,20.0225,,,0,,,2
2697,,"Csongrád alsó",,46.7113888888888888888888888888888888889,20.1263888888888888888888888888888888889,,,0,,,2
2698,,"Donát",,46.6697222222222222222222222222222222222,20.3680555555555555555555555555555555556,,,0,,,2
2699,,"Pusztatemplom",,46.6766666666666666666666666666666666667,20.4072222222222222222222222222222222222,,,0,,,2
2702,,"Előhát",,47.3647222222222222222222222222222222222,20.6536111111111111111111111111111111111,,,0,,,2
2737,,"Polgárdi-Tekerespuszta",,47.0177777777777777777777777777777777778,18.2977777777777777777777777777777777778,,,0,,,2
2739,,"Szatina-Kishajmás",,46.2027777777777777777777777777777777778,18.0836111111111111111111111111111111111,,,0,,,2
2740,,"Márok",,45.8869444444444444444444444444444444444,18.4991666666666666666666666666666666667,,,0,,,2
2741,,"Nagynyárád",,45.9575,18.5872222222222222222222222222222222222,,,0,,,2
2743,,"Szászvár",,46.2875,18.3697222222222222222222222222222222222,,,0,,,2
2744,,"Cikó",,46.2627777777777777777777777777777777778,18.5544444444444444444444444444444444444,,,0,,,2
2747,,"Gyöngyfa-Magyarmecske",,45.9838888888888888888888888888888888889,17.9588888888888888888888888888888888889,,,0,,,2
2749,,"Nagyhát",,47.5813888888888888888888888888888888889,21.445,,,0,,,2
2750,,"Balmazújváros",,47.6138888888888888888888888888888888889,21.3480555555555555555555555555555555556,,,0,,,2
2751,,"Kónya",,47.6008333333333333333333333333333333333,21.2375,,,0,,,2
2752,,"Hortobágy",,47.5861111111111111111111111111111111111,21.1547222222222222222222222222222222222,,,0,,,2
2753,,"Hortobágyi Halastó",,47.6041666666666666666666666666666666667,21.0741666666666666666666666666666666667,,,0,,,2
2754,,"Ohat-Pusztakócs",,47.6233333333333333333333333333333333333,20.9511111111111111111111111111111111111,,,0,,,2
2755,,"Egyek",,47.6169444444444444444444444444444444445,20.8836111111111111111111111111111111111,,,0,,,2
2756,,"Tiszafüred",,47.6277777777777777777777777777777777778,20.7561111111111111111111111111111111111,,,0,,,2
2757,,"Poroszló",,47.6577777777777777777777777777777777778,20.6544444444444444444444444444444444444,,,0,,,2
2758,,"Kétútköz",,47.6941666666666666666666666666666666667,20.565,,,0,,,2
2759,,"Egerfarmos",,47.7116666666666666666666666666666666667,20.5225,,,0,,,2
2832,,"Piliscsaba",,47.6380555555555555555555555555555555556,18.8297222222222222222222222222222222222,,,0,,,1
2833,,"Pilisjászfalu",,47.6561111111111111111111111111111111111,18.7977777777777777777777777777777777778,,,0,,,2
2834,,"Leányvár",,47.6858333333333333333333333333333333333,18.7747222222222222222222222222222222222,,,0,,,2
2835,,"Dorog",,47.7233333333333333333333333333333333333,18.7327777777777777777777777777777777778,,,0,,,2
2836,,"Esztergom-Kertváros",,47.7433333333333333333333333333333333333,18.7191666666666666666666666666666666667,,,0,,,2
2837,,"Esztergom",,47.7775,18.7436111111111111111111111111111111111,,,0,,,2
2838,,"Dunaalmás",,47.7330555555555555555555555555555555556,18.3263888888888888888888888888888888889,,,0,,,2
2839,,"Neszmély",,47.7344444444444444444444444444444444444,18.3452777777777777777777777777777777778,,,0,,,2
2840,,"Süttő",,47.7611111111111111111111111111111111111,18.455,,,0,,,2
2841,,"Piszke",,47.7522222222222222222222222222222222222,18.4802777777777777777777777777777777778,,,0,,,2
2842,,"Lábatlan",,47.7519444444444444444444444444444444444,18.5133333333333333333333333333333333333,,,0,,,2
2843,,"Eternitgyár",,47.7569444444444444444444444444444444444,18.5325,,,0,,,2
2844,,"Nyergesújfalu felső",,47.7622222222222222222222222222222222222,18.5405555555555555555555555555555555556,,,0,,,2
2845,,"Nyergesújfalu",,47.7611111111111111111111111111111111111,18.5616666666666666666666666666666666667,,,0,,,2
2847,,"Tokod",,47.735,18.675,,,0,,,2
2848,,"Környe",,47.5416666666666666666666666666666666667,18.3302777777777777777777777777777777778,,,0,,,2
2849,,"Kecskéd alsó",,47.5197222222222222222222222222222222222,18.3166666666666666666666666666666666667,,,0,,,2
2850,,"Oroszlány",,47.4869444444444444444444444444444444444,18.3086111111111111111111111111111111111,,,0,,,2
2868,,"Győrszabadhegy",,47.6630555555555555555555555555555555556,17.6480555555555555555555555555555555556,,,0,,,2
2869,,"Ménfőcsanak felső",,47.6383333333333333333333333333333333333,17.615,,,0,,,2
2873,,"Gyömöre-Tét",,47.4994444444444444444444444444444444444,17.5594444444444444444444444444444444444,,,0,,,2
2875,,"Szerecseny",,47.4691666666666666666666666666666666667,17.5475,,,0,,,2
2876,,"Gecse-Gyarmat",,47.4561111111111111111111111111111111111,17.515,,,0,,,2
2877,,"Vaszar",,47.4025,17.4963888888888888888888888888888888889,,,0,,,2
2878,,"Pápa",,47.3405555555555555555555555555555555556,17.4588888888888888888888888888888888889,,,0,,,1
2879,,"Mezőlak",,47.3247222222222222222222222222222222222,17.3713888888888888888888888888888888889,,,0,,,2
2880,,"Mihályháza",,47.3188888888888888888888888888888888889,17.3316666666666666666666666666666666667,,,0,,,2
2881,,"Vinár",,47.3066666666666666666666666666666666667,17.2847222222222222222222222222222222222,,,0,,,2
2882,,"Külsővat",,47.2791666666666666666666666666666666667,17.2197222222222222222222222222222222222,,,0,,,2
2883,,"Celldömölk",,47.2613888888888888888888888888888888889,17.1519444444444444444444444444444444444,,,0,,,2
2884,,"Kemenesmihályfa",,47.2780555555555555555555555555555555556,17.1111111111111111111111111111111111111,,,0,,,2
2885,,"Nagysimonyi",,47.2655555555555555555555555555555555556,17.0588888888888888888888888888888888889,,,0,,,2
2886,,"Ostffyasszonyfa",,47.2838888888888888888888888888888888889,17.0238888888888888888888888888888888889,,,0,,,2
2887,,"Sárvár",,47.2591666666666666666666666666666666667,16.9288888888888888888888888888888888889,,,0,,,2
2888,,"Porpác",,47.2386111111111111111111111111111111111,16.8325,,,0,,,2
3393,,"Balatonföldvár",,46.8538888888888888888888888888888888889,17.8813888888888888888888888888888888889,,,0,,,2
3394,,"Balatonszárszó",,46.8322222222222222222222222222222222222,17.8302777777777777777777777777777777778,,,0,,,2
3604,,"Balatonszemes",,46.8119444444444444444444444444444444444,17.7763888888888888888888888888888888889,,,0,,,2
3605,,"Balatonlelle felső",,46.7938888888888888888888888888888888889,17.7175,,,0,,,2
3606,,"Balatonlelle",,46.7875,17.6941666666666666666666666666666666667,,,0,,,2
3607,,"Fonyódliget",,46.7591666666666666666666666666666666667,17.5922222222222222222222222222222222222,,,0,,,2
3608,,"Balatonboglár",,46.7761111111111111111111111111111111111,17.6472222222222222222222222222222222222,,,0,,,2
3609,,"Balatonfenyves alsó",,46.7086111111111111111111111111111111111,17.4552777777777777777777777777777777778,,,0,,,2
3610,,"Fonyód",,46.7502777777777777777777777777777777778,17.5588888888888888888888888888888888889,,,0,,,1
3611,,"Bélatelep",,46.7377777777777777777777777777777777778,17.535,,,0,,,2
3612,,"Alsóbélatelep",,46.7241666666666666666666666666666666667,17.5163888888888888888888888888888888889,,,0,,,2
3613,,"Balatonfenyves",,46.7136111111111111111111111111111111111,17.4827777777777777777777777777777777778,,,0,,,2
3614,,"Máriahullámtelep",,46.7047222222222222222222222222222222222,17.435,,,0,,,2
3615,,"Balatonmáriafürdő",,46.7041666666666666666666666666666666667,17.3747222222222222222222222222222222222,,,0,,,2
3616,,"Balatonberény",,46.7138888888888888888888888888888888889,17.3169444444444444444444444444444444445,,,0,,,2
3617,,"Balatonszentgyörgy",,46.6927777777777777777777777777777777778,17.2888888888888888888888888888888888889,,,0,,,1
3618,,"Vörs",,46.6636111111111111111111111111111111111,17.2602777777777777777777777777777777778,,,0,,,2
3620,,"Zalaszentjakab",,46.4916666666666666666666666666666666667,17.1352777777777777777777777777777777778,,,0,,,2
3622,,"Nagykanizsa",,46.4408333333333333333333333333333333333,16.9866666666666666666666666666666666667,,,0,,,1
3624,,"Murakeresztúr",,46.3638888888888888888888888888888888889,16.8769444444444444444444444444444444445,,,0,,,2
3625,,"Zalakomár",,46.5302777777777777777777777777777777778,17.1880555555555555555555555555555555556,,,0,,,2
3626,,"Szárazrét",,47.2008333333333333333333333333333333333,18.3811111111111111111111111111111111111,,,0,,,2
3630,,"Bodajk",,47.3183333333333333333333333333333333333,18.2519444444444444444444444444444444444,,,0,,,2
3631,,"Csókakő",,47.3275,18.2405555555555555555555555555555555556,,,0,,,2
3632,,"Mór",,47.3691666666666666666666666666666666667,18.1891666666666666666666666666666666667,,,0,,,2
3633,,"Bakonysárkány",,47.4436111111111111111111111111111111111,18.1036111111111111111111111111111111111,,,0,,,2
3634,,"Kisbér",,47.4941666666666666666666666666666666667,18.0247222222222222222222222222222222222,,,0,,,2
3637,,"Nagyigmánd-Bábolna",,47.6305555555555555555555555555555555556,18.0508333333333333333333333333333333333,,,0,,,2
3639,,"Budapest-Déli",,47.4988888888888888888888888888888888889,19.025,,,0,,,1
3640,,"Budapest-Kelenföld",,47.4644444444444444444444444444444444444,19.02,,,0,,,2
3641,,"Budaörs",,47.4475,18.965,,,0,,,2
3642,,"Biatorbágy",,47.4802777777777777777777777777777777778,18.8344444444444444444444444444444444444,,,0,,,2
3643,,"Herceghalom",,47.4936111111111111111111111111111111111,18.7461111111111111111111111111111111111,,,0,,,2
3644,,"Bicske",,47.4841666666666666666666666666666666667,18.6175,,,0,,,2
3645,,"Szár",,47.485,18.5275,,,0,,,2
3646,,"Szárliget",,47.5183333333333333333333333333333333333,18.4958333333333333333333333333333333333,,,0,,,2
3648,,"Alsógalla",,47.5633333333333333333333333333333333333,18.4202777777777777777777777777777777778,,,0,,,2
3649,,"Tatabánya",,47.5855555555555555555555555555555555556,18.3930555555555555555555555555555555556,,,0,,,1
3650,,"Vértesszőlős",,47.6194444444444444444444444444444444445,18.3752777777777777777777777777777777778,,,0,,,2
3651,,"Tóvároskert",,47.6461111111111111111111111111111111111,18.3486111111111111111111111111111111111,,,0,,,2
3652,,"Tata",,47.665,18.3275,,,0,,,2
3653,,"Almásfüzitő",,47.7252777777777777777777777777777777778,18.2622222222222222222222222222222222222,,,0,,,2
3654,,"Almásfüzitő felső",,47.7313888888888888888888888888888888889,18.2163888888888888888888888888888888889,,,0,,,2
3655,,"Szőny",,47.7355555555555555555555555555555555556,18.1775,,,0,,,2
3656,,"Komárom",,47.7494444444444444444444444444444444444,18.1136111111111111111111111111111111111,,,0,,,2
3657,,"Ács",,47.7172222222222222222222222222222222222,18.0044444444444444444444444444444444444,,,0,,,2
3658,,"Nagyszentjános",,47.7055555555555555555555555555555555556,17.8713888888888888888888888888888888889,,,0,,,2
3659,,"Győrszentiván",,47.6886111111111111111111111111111111111,17.7455555555555555555555555555555555556,,,0,,,2
3660,,"Győr-Gyárváros",,47.6844444444444444444444444444444444444,17.6638888888888888888888888888888888889,,,0,,,2
3661,,"Győr",,47.6819444444444444444444444444444444445,17.6347222222222222222222222222222222222,,,0,,,1
3662,,"Öttevény",,47.7197222222222222222222222222222222222,17.4891666666666666666666666666666666667,,,0,,,2
3663,,"Lébény-Mosonszentmiklós",,47.7552777777777777777777777777777777778,17.4263888888888888888888888888888888889,,,0,,,2
3664,,"Kimle-Károlyháza",,47.8038888888888888888888888888888888889,17.3427777777777777777777777777777777778,,,0,,,2
3665,,"Mosonmagyaróvár",,47.8497222222222222222222222222222222222,17.2672222222222222222222222222222222222,,,0,,,2
3666,,"Levél",,47.8897222222222222222222222222222222222,17.1925,,,0,,,2
3667,,"Hegyeshalom",,47.9138888888888888888888888888888888889,17.1455555555555555555555555555555555556,,,0,,,2
3668,,"Óbuda",,47.5686111111111111111111111111111111111,19.0338888888888888888888888888888888889,,,0,,,2
3669,,"Üröm",,47.5805555555555555555555555555555555556,19.0022222222222222222222222222222222222,,,0,,,2
3670,,"Solymár",,47.5961111111111111111111111111111111111,18.95,,,0,,,2
3671,,"Pilisvörösvár",,47.6144444444444444444444444444444444444,18.9022222222222222222222222222222222222,,,0,,,2
3672,,"Klotildliget",,47.6377777777777777777777777777777777778,18.8463888888888888888888888888888888889,,,0,,,2
3673,,"Kútvölgy",,46.4594444444444444444444444444444444444,20.4519444444444444444444444444444444444,,,0,,,2
3674,,"Székkutas",,46.5038888888888888888888888888888888889,20.5411111111111111111111111111111111111,,,0,,,2
3820,,"Kaposszentjakab",,46.3580555555555555555555555555555555556,17.8219444444444444444444444444444444445,,,0,,,2
3821,,"Kaposvár",,46.3527777777777777777777777777777777778,17.795,,,0,,,1
3822,,"Kaposújlak",,46.3666666666666666666666666666666666667,17.715,,,0,,,2
3823,,"Kaposmérő",,46.3652777777777777777777777777777777778,17.6988888888888888888888888888888888889,,,0,,,2
3824,,"Kaposfő",,46.3641666666666666666666666666666666667,17.6566666666666666666666666666666666667,,,0,,,2
3825,,"Kiskorpád",,46.3613888888888888888888888888888888889,17.6066666666666666666666666666666666667,,,0,,,2
3826,,"Jákó-Nagybajom",,46.3444444444444444444444444444444444444,17.5544444444444444444444444444444444444,,,0,,,2
3827,,"Kutas",,46.3261111111111111111111111111111111111,17.4538888888888888888888888888888888889,,,0,,,2
3828,,"Beleg",,46.3169444444444444444444444444444444445,17.4205555555555555555555555555555555556,,,0,,,2
3829,,"Ötvöskónyi",,46.2927777777777777777777777777777777778,17.3580555555555555555555555555555555556,,,0,,,2
3830,,"Somogyszob",,46.2891666666666666666666666666666666667,17.3055555555555555555555555555555555556,,,0,,,2
3831,,"Bolhás",,46.2822222222222222222222222222222222222,17.2752777777777777777777777777777777778,,,0,,,2
3832,,"Szenta",,46.2741666666666666666666666666666666667,17.1822222222222222222222222222222222222,,,0,,,2
3833,,"Zrínyitelep",,46.2752777777777777777777777777777777778,17.1380555555555555555555555555555555556,,,0,,,2
3834,,"Csurgó",,46.2611111111111111111111111111111111111,17.0916666666666666666666666666666666667,,,0,,,2
3836,,"Gyékényes",,46.2491666666666666666666666666666666667,16.9563888888888888888888888888888888889,,,0,,,1
3837,,"Adony",,47.1061111111111111111111111111111111111,18.8477777777777777777777777777777777778,,,0,,,2
3838,,"Kulcs",,47.0511111111111111111111111111111111111,18.8975,,,0,,,2
3839,,"Rácalmás",,47.0233333333333333333333333333333333333,18.9088888888888888888888888888888888889,,,0,,,2
3840,,"Dunaújváros külső",,46.9847222222222222222222222222222222222,18.9025,,,0,,,2
3841,,"Dunaújváros",,46.9605555555555555555555555555555555556,18.9138888888888888888888888888888888889,,,0,,,2
3842,,"Újvenyim",,46.9369444444444444444444444444444444444,18.8688888888888888888888888888888888889,,,0,,,2
3843,,"Mezőfalva",,46.9055555555555555555555555555555555556,18.8102777777777777777777777777777777778,,,0,,,2
3849,,"Nagykarácsony felső",,46.8658333333333333333333333333333333333,18.7830555555555555555555555555555555556,,,0,,,2
3850,,"Nagykarácsony",,46.8486111111111111111111111111111111111,18.7655555555555555555555555555555555556,,,0,,,2
3851,,"Alap",,46.8319444444444444444444444444444444445,18.6577777777777777777777777777777777778,,,0,,,2
3852,,"Cece",,46.7733333333333333333333333333333333333,18.6233333333333333333333333333333333333,,,0,,,2
3853,,"Vajta",,46.7136111111111111111111111111111111111,18.6480555555555555555555555555555555556,,,0,,,2
3854,,"Rétszilas alsó",,46.8291666666666666666666666666666666667,18.6394444444444444444444444444444444444,,,0,,,2
3855,,"Nagydorog",,46.6152777777777777777777777777777777778,18.65,,,0,,,2
3858,,"Tengelic",,46.5161111111111111111111111111111111111,18.6952777777777777777777777777777777778,,,0,,,2
3860,,"Fácánkert",,46.4466666666666666666666666666666666667,18.7372222222222222222222222222222222222,,,0,,,2
3861,,"Tolna-Mözs",,46.4163888888888888888888888888888888889,18.7505555555555555555555555555555555556,,,0,,,2
3862,,"Szekszárd-Palánk",,46.3802777777777777777777777777777777778,18.7283333333333333333333333333333333333,,,0,,,2
3863,,"Szekszárd",,46.3494444444444444444444444444444444444,18.7125,,,0,,,2
3864,,"Őcsény",,46.3188888888888888888888888888888888889,18.7425,,,0,,,2
3865,,"Decs",,46.2838888888888888888888888888888888889,18.7561111111111111111111111111111111111,,,0,,,2
3874,,"Csikóstőttős",,46.3372222222222222222222222222222222222,18.1527777777777777777777777777777777778,,,0,,,2
3875,,"Mágocs-Alsómocsolád",,46.3102777777777777777777777777777777778,18.2222222222222222222222222222222222222,,,0,,,2
3876,,"Szalatnak",,46.2844444444444444444444444444444444444,18.2886111111111111111111111111111111111,,,0,,,2
3878,,"Máza-Szászvár",,46.2791666666666666666666666666666666667,18.4113888888888888888888888888888888889,,,0,,,2
3879,,"Váralja",,46.2816666666666666666666666666666666667,18.4361111111111111111111111111111111111,,,0,,,2
3880,,"Nagymányok",,46.2802777777777777777777777777777777778,18.4591666666666666666666666666666666667,,,0,,,2
3881,,"Hidas-Bonyhád",,46.2694444444444444444444444444444444445,18.5233333333333333333333333333333333333,,,0,,,2
3882,,"Mőcsény",,46.2575,18.5919444444444444444444444444444444444,,,0,,,2
3884,,"Bátaszék",,46.2022222222222222222222222222222222222,18.7155555555555555555555555555555555556,,,0,,,2
3885,,"Pörböly",,46.1991666666666666666666666666666666667,18.8263888888888888888888888888888888889,,,0,,,2
3890,,"Orosháza",,46.5661111111111111111111111111111111111,20.6647222222222222222222222222222222222,,,0,,,1
3891,,"Orosházi tanyák",,46.5969444444444444444444444444444444444,20.7605555555555555555555555555555555556,,,0,,,2
3892,,"Csorvás",,46.6236111111111111111111111111111111111,20.8408333333333333333333333333333333333,,,0,,,2
3893,,"Csorvás alsó",,46.6347222222222222222222222222222222222,20.8883333333333333333333333333333333333,,,0,,,2
3894,,"Telekgerendás",,46.6561111111111111111111111111111111111,20.9638888888888888888888888888888888889,,,0,,,2
3895,,"Fürjes",,46.6719444444444444444444444444444444445,21.0230555555555555555555555555555555556,,,0,,,2
3896,,"Fényes",,46.6594444444444444444444444444444444444,21.15,,,0,,,2
3897,,"Bicere",,46.66,21.1794444444444444444444444444444444445,,,0,,,2
3898,,"Gyula",,46.6563888888888888888888888888888888889,21.2733333333333333333333333333333333333,,,0,,,2
3899,,"József Szanatórium",,46.7047222222222222222222222222222222222,21.3325,,,0,,,2
3900,,"Sarkadi Cukorgyár",,46.73,21.3836111111111111111111111111111111111,,,0,,,2
3901,,"Sarkad",,46.7369444444444444444444444444444444444,21.4022222222222222222222222222222222222,,,0,,,2
3902,,"Kötegyán",,46.7583333333333333333333333333333333333,21.4797222222222222222222222222222222222,,,0,,,2
3903,,"Méhkerék",,46.7744444444444444444444444444444444445,21.4555555555555555555555555555555555556,,,0,,,2
3904,,"Sarkadkeresztúr",,46.8236111111111111111111111111111111111,21.4175,,,0,,,2
3905,,"Okány",,46.8925,21.3391666666666666666666666666666666667,,,0,,,2
3906,,"Újszeged",,46.2422222222222222222222222222222222222,20.16,,,0,,,2
3907,,"Szőreg",,46.2113888888888888888888888888888888889,20.1830555555555555555555555555555555556,,,0,,,2
3908,,"Deszk",,46.2102777777777777777777777777777777778,20.2463888888888888888888888888888888889,,,0,,,2
3909,,"Kiszombor",,46.1919444444444444444444444444444444444,20.4130555555555555555555555555555555556,,,0,,,2
3910,,"Kiszombor megálló",,46.1911111111111111111111111111111111111,20.4308333333333333333333333333333333333,,,0,,,2
3911,,"Makó",,46.2047222222222222222222222222222222222,20.4747222222222222222222222222222222222,,,0,,,2
3912,,"Apátfalva",,46.1752777777777777777777777777777777778,20.5805555555555555555555555555555555556,,,0,,,2
3913,,"Magyarcsanád",,46.1744444444444444444444444444444444445,20.6102777777777777777777777777777777778,,,0,,,2
3914,,"Nagylak",,46.17,20.7083333333333333333333333333333333333,,,0,,,2
3915,,"Nagylaki Kendergyár",,46.1891666666666666666666666666666666667,20.7172222222222222222222222222222222222,,,0,,,2
3916,,"Csanádpalota",,46.2361111111111111111111111111111111111,20.7325,,,0,,,2
3917,,"Mezőhegyes",,46.3108333333333333333333333333333333333,20.8155555555555555555555555555555555556,,,0,,,2
3918,,"Végegyháza",,46.3844444444444444444444444444444444444,20.8786111111111111111111111111111111111,,,0,,,2
3919,,"Mezőkovácsháza",,46.4083333333333333333333333333333333333,20.9,,,0,,,2
3920,,"Mezőkovácsháza felső",,46.4155555555555555555555555555555555556,20.9180555555555555555555555555555555556,,,0,,,2
3921,,"Magyarbánhegyes",,46.4513888888888888888888888888888888889,20.97,,,0,,,2
3922,,"Medgyesegyháza",,46.4952777777777777777777777777777777778,21.0291666666666666666666666666666666667,,,0,,,2
3923,,"Bánkút",,46.5052777777777777777777777777777777778,21.0919444444444444444444444444444444444,,,0,,,2
3924,,"Belsőperegpuszta",,46.3211111111111111111111111111111111111,20.9166666666666666666666666666666666667,,,0,,,2
3925,,"Battonya",,46.2822222222222222222222222222222222222,21.0038888888888888888888888888888888889,,,0,,,2
4729,,"Baja-Dunafürdő",,46.1933333333333333333333333333333333333,18.9191666666666666666666666666666666667,,,0,,,2
4730,,"Kaposszekcső",,46.3305555555555555555555555555555555556,18.1430555555555555555555555555555555556,,,0,,,2
4731,,"Vásárosdombó",,46.3105555555555555555555555555555555556,18.1388888888888888888888888888888888889,,,0,,,2
4944,,"Sásd",,46.2572222222222222222222222222222222222,18.1047222222222222222222222222222222222,,,0,,,2
4945,,"Godisa",,46.2233333333333333333333333333333333333,18.1047222222222222222222222222222222222,,,0,,,2
4946,,"Abaliget",,46.1527777777777777777777777777777777778,18.0736111111111111111111111111111111111,,,0,,,2
4947,,"Hetvehely",,46.1283333333333333333333333333333333333,18.045,,,0,,,2
4948,,"Bükkösd",,46.1130555555555555555555555555555555556,17.9994444444444444444444444444444444444,,,0,,,2
4949,,"Cserdi-Helesfa",,46.0866666666666666666666666666666666667,17.9877777777777777777777777777777777778,,,0,,,2
4950,,"Szentlőrinc",,46.0333333333333333333333333333333333333,17.9908333333333333333333333333333333333,,,0,,,2
4951,,"Bicsérd",,46.0413888888888888888888888888888888889,18.0577777777777777777777777777777777778,,,0,,,2
4952,,"Mecsekalja-Cserkút",,46.0597222222222222222222222222222222222,18.1502777777777777777777777777777777778,,,0,,,2
4953,,"Pécs",,46.0658333333333333333333333333333333333,18.2236111111111111111111111111111111111,,,0,,,1
4954,,"Pécs-Külváros",,46.0716666666666666666666666666666666667,18.24,,,0,,,2
4955,,"Pécsbánya-Rendező",,46.0633333333333333333333333333333333333,18.2702777777777777777777777777777777778,,,0,,,2
4956,,"Pécsudvard",,46.01,18.2755555555555555555555555555555555556,,,0,,,2
4957,,"Szőkéd",,45.9675,18.29,,,0,,,2
4958,,"Áta",,45.9363888888888888888888888888888888889,18.3069444444444444444444444444444444444,,,0,,,2
4959,,"Kistótfalu",,45.9097222222222222222222222222222222222,18.3152777777777777777777777777777777778,,,0,,,2
4960,,"Vokány",,45.8997222222222222222222222222222222222,18.3347222222222222222222222222222222222,,,0,,,2
4961,,"Palkonya",,45.8916666666666666666666666666666666667,18.3938888888888888888888888888888888889,,,0,,,2
4962,,"Villánykövesd",,45.8797222222222222222222222222222222222,18.4258333333333333333333333333333333333,,,0,,,2
4963,,"Villány",,45.8775,18.4513888888888888888888888888888888889,,,0,,,2
4964,,"Magyarbóly",,45.8341666666666666666666666666666666667,18.4919444444444444444444444444444444444,,,0,,,2
4965,,"Magyarhertelend",,46.1930555555555555555555555555555555556,18.1566666666666666666666666666666666667,,,0,,,2
4966,,"Magyarszék",,46.2102777777777777777777777777777777778,18.1880555555555555555555555555555555556,,,0,,,2
4967,,"Mecsekpölöske",,46.2241666666666666666666666666666666667,18.2130555555555555555555555555555555556,,,0,,,2
4968,,"Mecsekjánosi",,46.2152777777777777777777777777777777778,18.2419444444444444444444444444444444444,,,0,,,2
4969,,"Komló",,46.1891666666666666666666666666666666667,18.2652777777777777777777777777777777778,,,0,,,2
4970,,"Királyegyháza-Rigópuszta",,45.9891666666666666666666666666666666667,17.9716666666666666666666666666666666667,,,0,,,2
4971,,"Sumony",,45.9608333333333333333333333333333333333,17.9133333333333333333333333333333333333,,,0,,,2
4972,,"Okorág-Kárászpuszta",,45.9336111111111111111111111111111111111,17.8644444444444444444444444444444444444,,,0,,,2
4973,,"Kákics",,45.9041666666666666666666666666666666667,17.8525,,,0,,,2
4985,,"Bóly",,45.9375,18.5383333333333333333333333333333333333,,,0,,,2
4986,,"Mohács",,46.0025,18.6833333333333333333333333333333333333,,,0,,,2
4993,,"Sellye",,45.8733333333333333333333333333333333333,17.8588888888888888888888888888888888889,,,0,,,2
5006,,"Toponár",,46.3983333333333333333333333333333333333,17.8408333333333333333333333333333333333,,,0,,,2
5007,,"Somogyaszaló",,46.4536111111111111111111111111111111111,17.8402777777777777777777777777777777778,,,0,,,2
5008,,"Mernye",,46.5094444444444444444444444444444444444,17.8322222222222222222222222222222222222,,,0,,,2
5009,,"Felsőmocsolád",,46.5563888888888888888888888888888888889,17.8225,,,0,,,2
5010,,"Kisbárapáti",,46.615,17.8666666666666666666666666666666666667,,,0,,,2
5011,,"Bonnya",,46.6113888888888888888888888888888888889,17.9091666666666666666666666666666666667,,,0,,,2
5012,,"Andocs",,46.6469444444444444444444444444444444444,17.8925,,,0,,,2
5856,,"Karád",,46.6811111111111111111111111111111111111,17.8747222222222222222222222222222222222,,,0,,,2
5857,,"Somogymeggyes",,46.7205555555555555555555555555555555556,17.9205555555555555555555555555555555556,,,0,,,2
5858,,"Kapoly",,46.7136111111111111111111111111111111111,17.9777777777777777777777777777777777778,,,0,,,2
6069,,"Tab",,46.7341666666666666666666666666666666667,18.0411111111111111111111111111111111111,,,0,,,2
6070,,"Bábonymegyer",,46.7461111111111111111111111111111111111,18.1108333333333333333333333333333333333,,,0,,,2
6071,,"Daránypuszta",,46.7647222222222222222222222222222222222,18.1438888888888888888888888888888888889,,,0,,,2
6072,,"Som-Nagyberény",,46.8030555555555555555555555555555555556,18.1494444444444444444444444444444444444,,,0,,,2
6073,,"Ádánd",,46.8544444444444444444444444444444444444,18.1416666666666666666666666666666666667,,,0,,,2
6074,,"Siójut",,46.8794444444444444444444444444444444445,18.1266666666666666666666666666666666667,,,0,,,2
6075,,"Kapostüskevár",,46.3677777777777777777777777777777777778,17.7741666666666666666666666666666666667,,,0,,,2
6076,,"Kaposfüred",,46.415,17.7594444444444444444444444444444444444,,,0,,,2
6077,,"Várda",,46.4625,17.7216666666666666666666666666666666667,,,0,,,2
6078,,"Somogyjád",,46.4908333333333333333333333333333333333,17.6944444444444444444444444444444444444,,,0,,,2
6079,,"Osztopán",,46.5155555555555555555555555555555555556,17.6569444444444444444444444444444444444,,,0,,,2
6080,,"Pamuk",,46.5530555555555555555555555555555555556,17.6363888888888888888888888888888888889,,,0,,,2
6081,,"Somogyvár",,46.5805555555555555555555555555555555556,17.6347222222222222222222222222222222222,,,0,,,2
6082,,"Öreglak",,46.6083333333333333333333333333333333333,17.6325,,,0,,,2
6083,,"Tatárvár",,46.6366666666666666666666666666666666667,17.6211111111111111111111111111111111111,,,0,,,2
6084,,"Lengyeltóti",,46.6605555555555555555555555555555555556,17.6136111111111111111111111111111111111,,,0,,,2
6085,,"Pusztaberény",,46.6861111111111111111111111111111111111,17.5947222222222222222222222222222222222,,,0,,,2
6089,,"Örkény",,47.1327777777777777777777777777777777778,19.4472222222222222222222222222222222222,,,0,,,2
6090,,"Táborfalva",,47.0983333333333333333333333333333333333,19.4791666666666666666666666666666666667,,,0,,,2
6091,,"Felsőlajos",,47.0686111111111111111111111111111111111,19.4983333333333333333333333333333333333,,,0,,,2
6092,,"Lajosmizse",,47.0283333333333333333333333333333333333,19.5427777777777777777777777777777777778,,,0,,,2
6093,,"Lajosmizse alsó",,47.0225,19.5502777777777777777777777777777777778,,,0,,,2
6094,,"Klábertelep",,47.0055555555555555555555555555555555556,19.5516666666666666666666666666666666667,,,0,,,2
6095,,"Méntelek",,46.9786111111111111111111111111111111111,19.5708333333333333333333333333333333333,,,0,,,2
6096,,"Hetényegyháza",,46.9308333333333333333333333333333333333,19.595,,,0,,,2
6097,,"Kecskemét-Máriaváros",,46.8994444444444444444444444444444444444,19.6777777777777777777777777777777777778,,,0,,,2
6098,,"Nyársapát",,47.1002777777777777777777777777777777778,19.7925,,,0,,,2
6099,,"Nagykőrös",,47.0383333333333333333333333333333333333,19.76,,,0,,,2
6100,,"Katonatelep",,46.9630555555555555555555555555555555556,19.7188888888888888888888888888888888889,,,0,,,2
6101,,"Kecskemét",,46.9138888888888888888888888888888888889,19.7008333333333333333333333333333333333,,,0,,,1
6102,,"Városföld",,46.8166666666666666666666666666666666667,19.7533333333333333333333333333333333333,,,0,,,2
6103,,"Kiskunfélegyháza",,46.7069444444444444444444444444444444444,19.8338888888888888888888888888888888889,,,0,,,1
6104,,"Petőfiszállás",,46.6172222222222222222222222222222222222,19.8655555555555555555555555555555555556,,,0,,,2
6105,,"Csengele",,46.5380555555555555555555555555555555556,19.9088888888888888888888888888888888889,,,0,,,2
6106,,"Kistelek",,46.4669444444444444444444444444444444445,19.9669444444444444444444444444444444445,,,0,,,2
6107,,"Balástya",,46.4133333333333333333333333333333333333,20.0013888888888888888888888888888888889,,,0,,,2
6108,,"Szatymaz",,46.3455555555555555555555555555555555556,20.0436111111111111111111111111111111111,,,0,,,2
6109,,"Kiskundorozsma",,46.2716666666666666666666666666666666667,20.0905555555555555555555555555555555556,,,0,,,2
6110,,"Szeged",,46.2397222222222222222222222222222222222,20.1430555555555555555555555555555555556,,,0,,,1
6111,,"Alsóúrrét",,46.9016666666666666666666666666666666667,19.7719444444444444444444444444444444445,,,0,,,2
6112,,"Nyárlőrinc",,46.87,19.8513888888888888888888888888888888889,,,0,,,2
6113,,"Világoshegy",,46.8552777777777777777777777777777777778,19.9402777777777777777777777777777777778,,,0,,,2
6114,,"Szikra",,46.8583333333333333333333333333333333333,19.975,,,0,,,2
6115,,"Lakitelek",,46.8730555555555555555555555555555555556,20.0036111111111111111111111111111111111,,,0,,,2
6116,,"Tiszaug",,46.8505555555555555555555555555555555556,20.0741666666666666666666666666666666667,,,0,,,2
6117,,"Tiszasas",,46.8263888888888888888888888888888888889,20.0891666666666666666666666666666666667,,,0,,,2
6118,,"Csépa",,46.8125,20.1347222222222222222222222222222222222,,,0,,,2
6119,,"Szelevény",,46.8119444444444444444444444444444444444,20.1963888888888888888888888888888888889,,,0,,,2
6120,,"Gátér",,46.685,19.9625,,,0,,,2
6121,,"Kónyaszék",,46.6997222222222222222222222222222222222,20.0741666666666666666666666666666666667,,,0,,,2
6122,,"Csongrád",,46.7044444444444444444444444444444444444,20.1405555555555555555555555555555555556,,,0,,,2
6123,,"Hékéd",,46.675,20.2666666666666666666666666666666666667,,,0,,,2
6124,,"Fábiánsebestyén",,46.6702777777777777777777777777777777778,20.4566666666666666666666666666666666667,,,0,,,2
6125,,"Gádoros",,46.6566666666666666666666666666666666667,20.5883333333333333333333333333333333333,,,0,,,2
6126,,"Justhmajor",,46.62,20.6158333333333333333333333333333333333,,,0,,,2
6127,,"Szentetornya",,46.5916666666666666666666666666666666667,20.6280555555555555555555555555555555556,,,0,,,2
6128,,"Gyopárosfürdő",,46.5675,20.6305555555555555555555555555555555556,,,0,,,2
6411,,"Szabadságliget",,47.6261111111111111111111111111111111111,18.8933333333333333333333333333333333333,,,0,,,2
7197,,"Tószeg",,47.0980555555555555555555555555555555556,20.1383333333333333333333333333333333333,,,0,,,2
7198,,"Tiszavárkony",,47.0594444444444444444444444444444444444,20.1430555555555555555555555555555555556,,,0,,,2
7199,,"Tiszajenő-Vezseny",,47.0361111111111111111111111111111111111,20.1422222222222222222222222222222222222,,,0,,,2
7200,,"Újbög",,46.9622222222222222222222222222222222222,20.0938888888888888888888888888888888889,,,0,,,2
7201,,"Tiszakécske",,46.9375,20.0819444444444444444444444444444444445,,,0,,,2
7202,,"Kerekdomb",,46.9069444444444444444444444444444444444,20.0527777777777777777777777777777777778,,,0,,,2
7203,,"Tiszaalpár",,46.8186111111111111111111111111111111111,19.9827777777777777777777777777777777778,,,0,,,2
7204,,"Tiszaalpár alsó",,46.7908333333333333333333333333333333333,19.9513888888888888888888888888888888889,,,0,,,2
7205,,"Tiszatenyő",,47.1341666666666666666666666666666666667,20.3725,,,0,,,2
7206,,"Pusztapó",,47.0916666666666666666666666666666666667,20.4583333333333333333333333333333333333,,,0,,,2
7207,,"Kétpó",,47.0769444444444444444444444444444444445,20.4877777777777777777777777777777777778,,,0,,,2
7208,,"Csugar",,47.0536111111111111111111111111111111111,20.5341666666666666666666666666666666667,,,0,,,2
7209,,"Mezőtúr",,47.0125,20.6227777777777777777777777777777777778,,,0,,,2
7210,,"Nagylapos",,46.9741666666666666666666666666666666667,20.7505555555555555555555555555555555556,,,0,,,2
7211,,"Gyoma",,46.9258333333333333333333333333333333333,20.8216666666666666666666666666666666667,,,0,,,2
7212,,"Csárdaszállás",,46.8611111111111111111111111111111111111,20.9327777777777777777777777777777777778,,,0,,,2
7213,,"Mezőberény",,46.8147222222222222222222222222222222222,21.0130555555555555555555555555555555556,,,0,,,2
7214,,"Murony",,46.7569444444444444444444444444444444444,21.0380555555555555555555555555555555556,,,0,,,2
7216,,"Békéscsaba",,46.6697222222222222222222222222222222222,21.0816666666666666666666666666666666667,,,0,,,1
7218,,"Kétegyháza",,46.5325,21.1719444444444444444444444444444444445,,,0,,,2
7219,,"Lőkösháza",,46.4322222222222222222222222222222222222,21.2375,,,0,,,1
7220,,"Kengyel",,47.0897222222222222222222222222222222222,20.3397222222222222222222222222222222222,,,0,,,2
7221,,"Bagimajor",,47.0611111111111111111111111111111111111,20.3166666666666666666666666666666666667,,,0,,,2
7222,,"Martfű",,47.0194444444444444444444444444444444445,20.2916666666666666666666666666666666667,,,0,,,2
7223,,"Tiszaföldvár",,46.9755555555555555555555555555555555556,20.2763888888888888888888888888888888889,,,0,,,2
7224,,"Homok",,46.9475,20.2702777777777777777777777777777777778,,,0,,,2
7225,,"Kungyalu",,46.9108333333333333333333333333333333333,20.2675,,,0,,,2
7226,,"Kunszentmárton",,46.8483333333333333333333333333333333333,20.2933333333333333333333333333333333333,,,0,,,2
7228,,"Nagytőke",,46.7633333333333333333333333333333333333,20.2916666666666666666666666666666666667,,,0,,,2
7229,,"Kistőke",,46.7158333333333333333333333333333333333,20.2813888888888888888888888888888888889,,,0,,,2
7230,,"Szentes",,46.6577777777777777777777777777777777778,20.2725,,,0,,,2
7231,,"Szegvár",,46.5886111111111111111111111111111111111,20.2494444444444444444444444444444444444,,,0,,,2
7232,,"Mindszent",,46.5241666666666666666666666666666666667,20.1941666666666666666666666666666666667,,,0,,,2
7233,,"Mártély",,46.4733333333333333333333333333333333333,20.2361111111111111111111111111111111111,,,0,,,2
7234,,"Pusztabánréve",,46.9111111111111111111111111111111111111,20.5622222222222222222222222222222222222,,,0,,,2
7235,,"Szarvas",,46.8608333333333333333333333333333333333,20.5666666666666666666666666666666666667,,,0,,,2
7236,,"Csabacsűd",,46.8230555555555555555555555555555555556,20.6633333333333333333333333333333333333,,,0,,,2
7237,,"Kisszénás",,46.7513888888888888888888888888888888889,20.7213888888888888888888888888888888889,,,0,,,2
7239,,"Kiscsákó",,46.7191666666666666666666666666666666667,20.7177777777777777777777777777777777778,,,0,,,2
7240,,"Nagyszénás",,46.6727777777777777777777777777777777778,20.6741666666666666666666666666666666667,,,0,,,2
7243,,"Kardoskút",,46.4980555555555555555555555555555555556,20.6975,,,0,,,2
7244,,"Tótkomlós",,46.4091666666666666666666666666666666667,20.7269444444444444444444444444444444445,,,0,,,2
7245,,"Nagyér",,46.3652777777777777777777777777777777778,20.7383333333333333333333333333333333333,,,0,,,2
7246,,"Pitvaros",,46.3261111111111111111111111111111111111,20.7463888888888888888888888888888888889,,,0,,,2
7247,,"Dévaványa",,47.0338888888888888888888888888888888889,20.9433333333333333333333333333333333333,,,0,,,2
7249,,"Körösladány",,46.97,21.0858333333333333333333333333333333333,,,0,,,2
7250,,"Szeghalom",,47.0152777777777777777777777777777777778,21.1483333333333333333333333333333333333,,,0,,,2
7251,,"Vésztő",,46.9388888888888888888888888888888888889,21.2636111111111111111111111111111111111,,,0,,,2
7258,,"Szeged-Rókus",,46.2661111111111111111111111111111111111,20.1252777777777777777777777777777777778,,,0,,,2
7259,,"Algyő",,46.3355555555555555555555555555555555556,20.1961111111111111111111111111111111111,,,0,,,2
7261,,"Hódmezővásárhelyi Népkert",,46.4033333333333333333333333333333333333,20.3127777777777777777777777777777777778,,,0,,,2
7262,,"Hódmezővásárhely",,46.4133333333333333333333333333333333333,20.34,,,0,,,2
53375,,"Körmend",,47.0163888888888888888888888888888888889,16.5991666666666666666666666666666666667,,,0,,,1
53587,,"Szentgotthárd",,46.9572222222222222222222222222222222222,16.2630555555555555555555555555555555556,,,0,,,1
53589,,"Szombathely",,47.2377777777777777777777777777777777778,16.6325,,,0,,,1
54857,,"Sáferkút",,48.0102777777777777777777777777777777778,19.0713888888888888888888888888888888889,,,0,,,2
63737,,"Magdolnavölgy",,47.6475,18.8188888888888888888888888888888888889,,,0,,,2
65389,,"Haris",,46.9647222222222222222222222222222222222,16.2825,,,0,,,2
65390,,"Egyházasrádóc",,47.0913888888888888888888888888888888889,16.62,,,0,,,2
65391,,"Alsórönök",,46.9641666666666666666666666666666666667,16.3794444444444444444444444444444444445,,,0,,,2
65392,,"Szombathely-Szőlős",,47.2063888888888888888888888888888888889,16.6416666666666666666666666666666666667,,,0,,,2
65393,,"Rátót",,46.9675,16.4330555555555555555555555555555555556,,,0,,,2
65394,,"Ják-Balogunyom",,47.1613888888888888888888888888888888889,16.6305555555555555555555555555555555556,,,0,,,2
65395,,"Vasvár",,47.0569444444444444444444444444444444444,16.8002777777777777777777777777777777778,,,0,,,2
65396,,"Répcelak",,47.4188888888888888888888888888888888889,17.0088888888888888888888888888888888889,,,0,,,2
65397,,"Rajka",,47.9955555555555555555555555555555555556,17.1913888888888888888888888888888888889,,,0,,,2
65398,,"Püspökmolnári",,47.0861111111111111111111111111111111111,16.7675,,,0,,,2
65399,,"Kőszeg",,47.3822222222222222222222222222222222222,16.5563888888888888888888888888888888889,,,0,,,2
65402,,"Kastélypark",,47.3902777777777777777777777777777777778,18.9883333333333333333333333333333333333,,,0,,,2
65413,,"Hanságliget",,47.72,17.2155555555555555555555555555555555556,,,0,,,2
65414,,"Vica",,47.4777777777777777777777777777777777778,17.1119444444444444444444444444444444444,,,0,,,2
65415,,"Vép",,47.2358333333333333333333333333333333333,16.7275,,,0,,,2
65416,,"Mosonszolnok",,47.8525,17.1602777777777777777777777777777777778,,,0,,,2
65417,,"Jánossomorja",,47.7891666666666666666666666666666666667,17.1375,,,0,,,2
65419,,"Bősárkány",,47.6855555555555555555555555555555555556,17.2341666666666666666666666666666666667,,,0,,,2
65420,,"Szil-Sopronnémeti",,47.5333333333333333333333333333333333333,17.2094444444444444444444444444444444444,,,0,,,2
65421,,"Magyarkeresztúr-Zsebeháza",,47.5141666666666666666666666666666666667,17.1761111111111111111111111111111111111,,,0,,,2
65422,,"Páli-Vadosfa",,47.4925,17.1377777777777777777777777777777777778,,,0,,,2
65423,,"Beled",,47.4666666666666666666666666666666666667,17.0844444444444444444444444444444444444,,,0,,,2
65424,,"Dénesfa",,47.4486111111111111111111111111111111111,17.0547222222222222222222222222222222222,,,0,,,2
65425,,"Csánig",,47.4302777777777777777777777777777777778,17.0261111111111111111111111111111111111,,,0,,,2
65426,,"Vámoscsalád",,47.3855555555555555555555555555555555556,16.9616666666666666666666666666666666667,,,0,,,2
65427,,"Vasegerszeg",,47.375,16.9288888888888888888888888888888888889,,,0,,,2
65428,,"Hegyfalu",,47.3577777777777777777777777777777777778,16.8983333333333333333333333333333333333,,,0,,,2
65429,,"Pósfa",,47.3269444444444444444444444444444444445,16.8558333333333333333333333333333333333,,,0,,,2
65430,,"Ölbő-Alsószeleste",,47.3005555555555555555555555555555555556,16.8430555555555555555555555555555555556,,,0,,,2
65432,,"Gencsapáti felső",,47.2997222222222222222222222222222222222,16.5938888888888888888888888888888888889,,,0,,,2
65433,,"Lukácsháza alsó",,47.3263888888888888888888888888888888889,16.5863888888888888888888888888888888889,,,0,,,2
65434,,"Kőszegfalva",,47.3616666666666666666666666666666666667,16.5677777777777777777777777777777777778,,,0,,,2
65435,,"Gyöngyöshermán",,47.2027777777777777777777777777777777778,16.6572222222222222222222222222222222222,,,0,,,2
65436,,"Bezenye",,47.9736111111111111111111111111111111111,17.2072222222222222222222222222222222222,,,0,,,2
65437,,"Kámon",,47.2675,16.6188888888888888888888888888888888889,,,0,,,2
65438,,"Sorkifalud",,47.1375,16.7191666666666666666666666666666666667,,,0,,,2
65439,,"Szentléránt",,47.12,16.7355555555555555555555555555555555556,,,0,,,2
65440,,"Pácsony",,47.0097222222222222222222222222222222222,16.8336111111111111111111111111111111111,,,0,,,2
65441,,"Győrvár",,46.99,16.8405555555555555555555555555555555556,,,0,,,2
65442,,"Egervár-Vasboldogasszony",,46.9422222222222222222222222222222222222,16.8622222222222222222222222222222222222,,,0,,,2
65443,,"Zalaszentlőrinc",,46.9138888888888888888888888888888888889,16.8775,,,0,,,2
65444,,"Gencsapáti alsó",,47.2858333333333333333333333333333333333,16.6,,,0,,,2
65445,,"Gyöngyösfalu",,47.3161111111111111111111111111111111111,16.59,,,0,,,2
65446,,"Lukácsháza",,47.3411111111111111111111111111111111111,16.5805555555555555555555555555555555556,,,0,,,2
65520,,"Horvátnádalja",,47.0052777777777777777777777777777777778,16.5444444444444444444444444444444444444,,,0,,,2
65521,,"Csákánydoroszló",,46.9783333333333333333333333333333333333,16.4997222222222222222222222222222222222,,,0,,,2
75222,,"Váckisújfalu",,47.705,19.3402777777777777777777777777777777778,,,0,,,2
88385,,"Csisztafürdő",,46.6505555555555555555555555555555555556,17.5766666666666666666666666666666666667,,,0,,,2
95640,,"Mórágy",,46.2358333333333333333333333333333333333,18.6272222222222222222222222222222222222,,,0,,,2
107614,,"Pusztaszentistván",,47.4397222222222222222222222222222222222,19.47,,,0,,,2
108090,,"Külsőhalas",,46.4169444444444444444444444444444444445,19.5011111111111111111111111111111111111,,,0,,,2
112636,,"Aranyvölgy",,47.5736111111111111111111111111111111111,19.0172222222222222222222222222222222222,,,0,,,2
112637,,"Szélhegy",,47.6011111111111111111111111111111111111,18.9280555555555555555555555555555555556,,,0,,,2
112638,,"Vörösvárbánya",,47.61,18.9136111111111111111111111111111111111,,,0,,,2
149951,,"Máriaszőlőtelep",,46.7027777777777777777777777777777777778,17.4116666666666666666666666666666666667,,,0,,,2
151432,,"Akadémiaújtelep",,47.4855555555555555555555555555555555556,19.2227777777777777777777777777777777778,,,0,,,2
151471,,"Újpalota",,47.5313888888888888888888888888888888889,19.1261111111111111111111111111111111111,,,0,,,2
152451,,"Szeged, Somogyi utca",,46.2502777777777777777777777777777777778,20.1475,,,0,,,2
152452,,"Hódmezővásárhely, Hősök tere",,46.4119444444444444444444444444444444444,20.3175,,,0,,,2
152453,,"Hódmezővásárhely, Kossuth tér",,46.4144444444444444444444444444444444444,20.3197222222222222222222222222222222222,,,0,,,2
152454,,"Hódmezővásárhely, Strandfürdő",,46.4088888888888888888888888888888888889,20.3155555555555555555555555555555555556,,,0,,,2
152455,,"Szeged, Széchenyi tér",,46.2525,20.1491666666666666666666666666666666667,,,0,,,2
152456,,"Szeged, Anna-kút",,46.2561111111111111111111111111111111111,20.1475,,,0,,,2
152457,,"Szeged, Rókusi templom",,46.2591666666666666666666666666666666667,20.1416666666666666666666666666666666667,,,0,,,2
152458,,"Hódmezővásárhely, Kálvin János tér",,46.4166666666666666666666666666666666667,20.3283333333333333333333333333333333333,,,0,,,2
152459,,"Hódmezővásárhely vasútállomás",,46.4130555555555555555555555555555555556,20.3386111111111111111111111111111111111,,,0,,,2
152460,,"Szeged, Tavasz utca",,46.2605555555555555555555555555555555556,20.1388888888888888888888888888888888889,,,0,,,2
152461,,"Szeged, Damjanich utca",,46.2625,20.135,,,0,,,2
152462,,"Szeged, Vásárhelyi Pál utca",,46.2641666666666666666666666666666666667,20.1308333333333333333333333333333333333,,,0,,,2
152463,,"Szeged, Bécsi körút ",,46.2433333333333333333333333333333333333,20.1436111111111111111111111111111111111,,,0,,,2
152464,,"Hódmezővásárhelyi Népkert vasútállomás",,46.4036111111111111111111111111111111111,20.3127777777777777777777777777777777778,,,0,,,2
152465,,"Szeged vasútállomás",,46.2397222222222222222222222222222222222,20.1425,,,0,,,2
152466,,"Szeged, Bem utca",,46.24,20.1411111111111111111111111111111111111,,,0,,,2
152467,,"Szeged, Galamb utca",,46.2413888888888888888888888888888888889,20.1422222222222222222222222222222222222,,,0,,,2
152468,,"Szeged, Aradi vértanúk tere",,46.2477777777777777777777777777777777778,20.1469444444444444444444444444444444444,,,0,,,2
152469,,"Szeged, Pulz utca",,46.2644444444444444444444444444444444444,20.1258333333333333333333333333333333333,,,0,,,2
152470,,"Szeged, Rókus vasútállomás",,46.2658333333333333333333333333333333333,20.1255555555555555555555555555555555556,,,0,,,2
171510,,"Macs Ipari Park mh.",,47.5627777777777777777777777777777777778,21.5155555555555555555555555555555555556,,,0,,,2
